{
"type": "FeatureCollection",
"name": "pois",
"crs": { "type": "name", "properties": { "name": "urn:ogc:def:crs:OGC:1.3:CRS84" } },
"features": [
{ "type": "Feature", "properties": { "osm_id": "317032737", "code": 2001, "fclass": "police", "name": "Préfecture de Police", "1": true, "2": false, "3": false, "41": false, "42": false, "51": false, "52": false, "6": false, "7": false }, "geometry": { "type": "Point", "coordinates": [ 57.497683222711522, -20.164375609944845 ] } },
{ "type": "Feature", "properties": { "osm_id": "374397815", "code": 2742, "fclass": "viewpoint", "name": null, "1": true, "2": false, "3": false, "41": false, "42": false, "51": false, "52": false, "6": false, "7": true }, "geometry": { "type": "Point", "coordinates": [ 57.50980532255921, -20.163350009876048 ] } },
{ "type": "Feature", "properties": { "osm_id": "380468499", "code": 2722, "fclass": "museum", "name": "Blue Penny Museum", "1": true, "2": false, "3": false, "41": false, "42": true, "51": false, "52": false, "6": false, "7": false }, "geometry": { "type": "Point", "coordinates": [ 57.497501322736014, -20.160905809956564 ] } },
{ "type": "Feature", "properties": { "osm_id": "821712201", "code": 2901, "fclass": "toilet", "name": null, "1": true, "2": false, "3": false, "41": false, "42": false, "51": false, "52": false, "6": false, "7": false }, "geometry": { "type": "Point", "coordinates": [ 57.49861012271996, -20.161144909949261 ] } },
{ "type": "Feature", "properties": { "osm_id": "821712205", "code": 2401, "fclass": "hotel", "name": "Labourdonnais Waterfront Hotel", "1": true, "2": false, "3": false, "41": false, "42": false, "51": false, "52": false, "6": false, "7": false }, "geometry": { "type": "Point", "coordinates": [ 57.497644022737859, -20.160322609957504 ] } },
{ "type": "Feature", "properties": { "osm_id": "828423037", "code": 2515, "fclass": "bookshop", "name": null, "1": true, "2": false, "3": false, "41": false, "42": false, "51": false, "52": false, "6": false, "7": false }, "geometry": { "type": "Point", "coordinates": [ 57.498010522726723, -20.161316009952312 ] } },
{ "type": "Feature", "properties": { "osm_id": "828423085", "code": 2305, "fclass": "bar", "name": null, "1": true, "2": false, "3": false, "41": true, "42": false, "51": false, "52": false, "6": false, "7": false }, "geometry": { "type": "Point", "coordinates": [ 57.497972222732749, -20.160449209955189 ] } },
{ "type": "Feature", "properties": { "osm_id": "828423445", "code": 2904, "fclass": "fountain", "name": null, "1": true, "2": false, "3": false, "41": false, "42": false, "51": false, "52": false, "6": false, "7": true }, "geometry": { "type": "Point", "coordinates": [ 57.498219822725382, -20.161097509951748 ] } },
{ "type": "Feature", "properties": { "osm_id": "1054695123", "code": 2302, "fclass": "fast_food", "name": "McDonald's", "1": true, "2": false, "3": false, "41": true, "42": false, "51": false, "52": false, "6": false, "7": false }, "geometry": { "type": "Point", "coordinates": [ 57.501166722684317, -20.161481609933062 ] } },
{ "type": "Feature", "properties": { "osm_id": "1054699374", "code": 2203, "fclass": "cinema", "name": "Cine City", "1": true, "2": false, "3": false, "41": false, "42": true, "51": false, "52": false, "6": false, "7": false }, "geometry": { "type": "Point", "coordinates": [ 57.5032553226348, -20.164961009909959 ] } },
{ "type": "Feature", "properties": { "osm_id": "1112633831", "code": 2955, "fclass": "lighthouse", "name": null, "1": true, "2": false, "3": false, "41": false, "42": false, "51": false, "52": false, "6": false, "7": false }, "geometry": { "type": "Point", "coordinates": [ 57.51575452243658, -20.170366709819184 ] } },
{ "type": "Feature", "properties": { "osm_id": "1402034693", "code": 2201, "fclass": "theatre", "name": "Théatre de Port Louis", "1": true, "2": false, "3": false, "41": false, "42": true, "51": false, "52": false, "6": false, "7": false }, "geometry": { "type": "Point", "coordinates": [ 57.504377622628873, -20.163582009907572 ] } },
{ "type": "Feature", "properties": { "osm_id": "1705267522", "code": 2723, "fclass": "monument", "name": "Malartic Tomb", "1": true, "2": false, "3": false, "41": false, "42": false, "51": false, "52": false, "6": false, "7": true }, "geometry": { "type": "Point", "coordinates": [ 57.511523022490394, -20.170625909843512 ] } },
{ "type": "Feature", "properties": { "osm_id": "1706085681", "code": 2950, "fclass": "tower", "name": "Signal Mountain", "1": true, "2": false, "3": false, "41": false, "42": false, "51": false, "52": false, "6": false, "7": false }, "geometry": { "type": "Point", "coordinates": [ 57.492246622719875, -20.174257409946648 ] } },
{ "type": "Feature", "properties": { "osm_id": "1706085681", "code": 2742, "fclass": "viewpoint", "name": "Signal Mountain", "1": true, "2": false, "3": false, "41": false, "42": false, "51": false, "52": false, "6": false, "7": true }, "geometry": { "type": "Point", "coordinates": [ 57.492246622719875, -20.174257409946648 ] } },
{ "type": "Feature", "properties": { "osm_id": "2150638698", "code": 2302, "fclass": "fast_food", "name": "Gloria Fast Food", "1": true, "2": false, "3": false, "41": true, "42": false, "51": false, "52": false, "6": false, "7": false }, "geometry": { "type": "Point", "coordinates": [ 57.509087922589963, -20.159995509890642 ] } },
{ "type": "Feature", "properties": { "osm_id": "2168993870", "code": 2302, "fclass": "fast_food", "name": "B Don B", "1": true, "2": false, "3": false, "41": true, "42": false, "51": false, "52": false, "6": false, "7": false }, "geometry": { "type": "Point", "coordinates": [ 57.504501322637218, -20.162016109911615 ] } },
{ "type": "Feature", "properties": { "osm_id": "2169010560", "code": 2301, "fclass": "restaurant", "name": "Rozi Darrabarr", "1": true, "2": false, "3": false, "41": true, "42": false, "51": false, "52": false, "6": false, "7": false }, "geometry": { "type": "Point", "coordinates": [ 57.50429202263841, -20.162257809912091 ] } },
{ "type": "Feature", "properties": { "osm_id": "2169012786", "code": 2601, "fclass": "bank", "name": "Bank of Baroda", "1": true, "2": false, "3": false, "41": false, "42": false, "51": false, "52": true, "6": false, "7": false }, "geometry": { "type": "Point", "coordinates": [ 57.503647722647017, -20.16223460991602 ] } },
{ "type": "Feature", "properties": { "osm_id": "2169013878", "code": 2601, "fclass": "bank", "name": "MCB Head Office", "1": true, "2": false, "3": false, "41": false, "42": false, "51": false, "52": true, "6": false, "7": false }, "geometry": { "type": "Point", "coordinates": [ 57.503047922659242, -20.161548009921681 ] } },
{ "type": "Feature", "properties": { "osm_id": "2169023647", "code": 2301, "fclass": "restaurant", "name": "Lambic", "1": true, "2": false, "3": false, "41": true, "42": false, "51": false, "52": false, "6": false, "7": false }, "geometry": { "type": "Point", "coordinates": [ 57.499732322679762, -20.165150809930267 ] } },
{ "type": "Feature", "properties": { "osm_id": "2173160257", "code": 2301, "fclass": "restaurant", "name": "Le Countyard", "1": true, "2": false, "3": false, "41": true, "42": false, "51": false, "52": false, "6": false, "7": false }, "geometry": { "type": "Point", "coordinates": [ 57.500344622674092, -20.164779909927777 ] } },
{ "type": "Feature", "properties": { "osm_id": "2173164897", "code": 2101, "fclass": "pharmacy", "name": "Newton Parmacy", "1": true, "2": false, "3": false, "41": false, "42": false, "51": false, "52": true, "6": false, "7": false }, "geometry": { "type": "Point", "coordinates": [ 57.502791122662181, -20.161614709923011 ] } },
{ "type": "Feature", "properties": { "osm_id": "2173166077", "code": 2511, "fclass": "convenience", "name": "Anan Mithai Sweetshop", "1": true, "2": false, "3": false, "41": false, "42": false, "51": true, "52": false, "6": false, "7": false }, "geometry": { "type": "Point", "coordinates": [ 57.506817122606293, -20.162108209897628 ] } },
{ "type": "Feature", "properties": { "osm_id": "2184998220", "code": 2401, "fclass": "hotel", "name": "St Georges Hotel", "1": true, "2": false, "3": false, "41": false, "42": false, "51": false, "52": false, "6": false, "7": false }, "geometry": { "type": "Point", "coordinates": [ 57.502582622628019, -20.167408309906371 ] } },
{ "type": "Feature", "properties": { "osm_id": "2337754325", "code": 2005, "fclass": "post_office", "name": null, "1": true, "2": false, "3": false, "41": false, "42": false, "51": false, "52": true, "6": false, "7": false }, "geometry": { "type": "Point", "coordinates": [ 57.509209222611666, -20.156337009901161 ] } },
{ "type": "Feature", "properties": { "osm_id": "2337754885", "code": 2901, "fclass": "toilet", "name": null, "1": true, "2": false, "3": false, "41": false, "42": false, "51": false, "52": false, "6": false, "7": false }, "geometry": { "type": "Point", "coordinates": [ 57.51070592258133, -20.158021509887124 ] } },
{ "type": "Feature", "properties": { "osm_id": "2624972983", "code": 2101, "fclass": "pharmacy", "name": "Pharmacie Farquhar", "1": true, "2": false, "3": false, "41": false, "42": false, "51": false, "52": true, "6": false, "7": false }, "geometry": { "type": "Point", "coordinates": [ 57.502810122670233, -20.160310009926928 ] } },
{ "type": "Feature", "properties": { "osm_id": "3104081552", "code": 2520, "fclass": "jeweller", "name": null, "1": true, "2": false, "3": false, "41": false, "42": false, "51": false, "52": false, "6": false, "7": false }, "geometry": { "type": "Point", "coordinates": [ 57.501090922684419, -20.161622209933057 ] } },
{ "type": "Feature", "properties": { "osm_id": "3104081553", "code": 2561, "fclass": "hairdresser", "name": "Sebastien Coiffure", "1": true, "2": false, "3": false, "41": false, "42": false, "51": false, "52": false, "6": false, "7": false }, "geometry": { "type": "Point", "coordinates": [ 57.500874922687863, -20.161523309934658 ] } },
{ "type": "Feature", "properties": { "osm_id": "3104081554", "code": 2512, "fclass": "clothes", "name": "Quiksilver", "1": true, "2": false, "3": false, "41": false, "42": false, "51": false, "52": false, "6": false, "7": false }, "geometry": { "type": "Point", "coordinates": [ 57.5008314226869, -20.161767309934188 ] } },
{ "type": "Feature", "properties": { "osm_id": "3104081555", "code": 2520, "fclass": "jeweller", "name": "Body & Soul", "1": true, "2": false, "3": false, "41": false, "42": false, "51": false, "52": false, "6": false, "7": false }, "geometry": { "type": "Point", "coordinates": [ 57.500885222686954, -20.161646609934188 ] } },
{ "type": "Feature", "properties": { "osm_id": "3104081556", "code": 2517, "fclass": "shoe_shop", "name": null, "1": true, "2": false, "3": false, "41": false, "42": false, "51": false, "52": false, "6": false, "7": false }, "geometry": { "type": "Point", "coordinates": [ 57.501062822684538, -20.161660009933119 ] } },
{ "type": "Feature", "properties": { "osm_id": "3104081557", "code": 2517, "fclass": "shoe_shop", "name": null, "1": true, "2": false, "3": false, "41": false, "42": false, "51": false, "52": false, "6": false, "7": false }, "geometry": { "type": "Point", "coordinates": [ 57.501087422684954, -20.161545309933352 ] } },
{ "type": "Feature", "properties": { "osm_id": "3104081558", "code": 2101, "fclass": "pharmacy", "name": "Pharmacie du Port", "1": true, "2": false, "3": false, "41": false, "42": false, "51": false, "52": true, "6": false, "7": false }, "geometry": { "type": "Point", "coordinates": [ 57.501040922683714, -20.161833209932713 ] } },
{ "type": "Feature", "properties": { "osm_id": "3104081559", "code": 2512, "fclass": "clothes", "name": "Island Haze", "1": true, "2": false, "3": false, "41": false, "42": false, "51": false, "52": false, "6": false, "7": false }, "geometry": { "type": "Point", "coordinates": [ 57.501024022685904, -20.161526009933752 ] } },
{ "type": "Feature", "properties": { "osm_id": "3104081560", "code": 2512, "fclass": "clothes", "name": "Body & Soul", "1": true, "2": false, "3": false, "41": false, "42": false, "51": false, "52": false, "6": false, "7": false }, "geometry": { "type": "Point", "coordinates": [ 57.499482222694169, -20.163403109937125 ] } },
{ "type": "Feature", "properties": { "osm_id": "3127841324", "code": 2543, "fclass": "doityourself", "name": "PKL", "1": true, "2": false, "3": false, "41": false, "42": false, "51": false, "52": true, "6": false, "7": false }, "geometry": { "type": "Point", "coordinates": [ 57.499645322682269, -20.164936109931439 ] } },
{ "type": "Feature", "properties": { "osm_id": "3374761490", "code": 2302, "fclass": "fast_food", "name": "KFC", "1": true, "2": false, "3": false, "41": true, "42": false, "51": false, "52": false, "6": false, "7": false }, "geometry": { "type": "Point", "coordinates": [ 57.505543422603438, -20.165177009895718 ] } },
{ "type": "Feature", "properties": { "osm_id": "3374761491", "code": 2301, "fclass": "restaurant", "name": "Entre Deux", "1": true, "2": false, "3": false, "41": true, "42": false, "51": false, "52": false, "6": false, "7": false }, "geometry": { "type": "Point", "coordinates": [ 57.503095422640541, -20.164388009912656 ] } },
{ "type": "Feature", "properties": { "osm_id": "3753992210", "code": 2005, "fclass": "post_office", "name": "Emmanuel Anquetil Building Post Office", "1": true, "2": false, "3": false, "41": false, "42": false, "51": false, "52": true, "6": false, "7": false }, "geometry": { "type": "Point", "coordinates": [ 57.505146922615751, -20.164058709901539 ] } },
{ "type": "Feature", "properties": { "osm_id": "3755490694", "code": 2301, "fclass": "restaurant", "name": "Le Bardo", "1": true, "2": false, "3": false, "41": true, "42": false, "51": false, "52": false, "6": false, "7": false }, "geometry": { "type": "Point", "coordinates": [ 57.508565122584557, -20.161921609887823 ] } },
{ "type": "Feature", "properties": { "osm_id": "3755490695", "code": 2601, "fclass": "bank", "name": "MCB", "1": true, "2": false, "3": false, "41": false, "42": false, "51": false, "52": true, "6": false, "7": false }, "geometry": { "type": "Point", "coordinates": [ 57.508951622590573, -20.160184709890892 ] } },
{ "type": "Feature", "properties": { "osm_id": "4004657639", "code": 2501, "fclass": "supermarket", "name": "Food Lover's Market", "1": true, "2": false, "3": false, "41": false, "42": false, "51": true, "52": false, "6": false, "7": false }, "geometry": { "type": "Point", "coordinates": [ 57.497595422719321, -20.163331809948552 ] } },
{ "type": "Feature", "properties": { "osm_id": "4004657640", "code": 2302, "fclass": "fast_food", "name": "Bismillah Snack", "1": true, "2": false, "3": false, "41": true, "42": false, "51": false, "52": false, "6": false, "7": false }, "geometry": { "type": "Point", "coordinates": [ 57.497181622718479, -20.164315909947959 ] } },
{ "type": "Feature", "properties": { "osm_id": "4004664146", "code": 2302, "fclass": "fast_food", "name": "Tong Yen Snack", "1": true, "2": false, "3": false, "41": true, "42": false, "51": false, "52": false, "6": false, "7": false }, "geometry": { "type": "Point", "coordinates": [ 57.505275422651025, -20.158252809918594 ] } },
{ "type": "Feature", "properties": { "osm_id": "4151568694", "code": 2203, "fclass": "cinema", "name": null, "1": true, "2": false, "3": false, "41": false, "42": true, "51": false, "52": false, "6": false, "7": false }, "geometry": { "type": "Point", "coordinates": [ 57.499567022706529, -20.161285209943138 ] } },
{ "type": "Feature", "properties": { "osm_id": "4151568743", "code": 2501, "fclass": "supermarket", "name": "Winner's Garden Tower", "1": true, "2": false, "3": false, "41": false, "42": false, "51": true, "52": false, "6": false, "7": false }, "geometry": { "type": "Point", "coordinates": [ 57.503151422639462, -20.164442509912167 ] } },
{ "type": "Feature", "properties": { "osm_id": "4547571392", "code": 2004, "fclass": "post_box", "name": null, "1": true, "2": false, "3": false, "41": false, "42": false, "51": false, "52": false, "6": false, "7": false }, "geometry": { "type": "Point", "coordinates": [ 57.49441162277094, -20.161777509972186 ] } },
{ "type": "Feature", "properties": { "osm_id": "4575235189", "code": 2301, "fclass": "restaurant", "name": null, "1": true, "2": false, "3": false, "41": true, "42": false, "51": false, "52": false, "6": false, "7": false }, "geometry": { "type": "Point", "coordinates": [ 57.510343022580059, -20.158969309886331 ] } },
{ "type": "Feature", "properties": { "osm_id": "4584137603", "code": 2404, "fclass": "guesthouse", "name": null, "1": true, "2": false, "3": false, "41": false, "42": false, "51": false, "52": false, "6": false, "7": false }, "geometry": { "type": "Point", "coordinates": [ 57.512993822435448, -20.176228309817564 ] } },
{ "type": "Feature", "properties": { "osm_id": "4590666991", "code": 2505, "fclass": "department_store", "name": null, "1": true, "2": false, "3": false, "41": false, "42": false, "51": false, "52": false, "6": false, "7": false }, "geometry": { "type": "Point", "coordinates": [ 57.498206222727198, -20.160837309952601 ] } },
{ "type": "Feature", "properties": { "osm_id": "4741358825", "code": 2301, "fclass": "restaurant", "name": null, "1": true, "2": false, "3": false, "41": true, "42": false, "51": false, "52": false, "6": false, "7": false }, "geometry": { "type": "Point", "coordinates": [ 57.506401322632342, -20.158869309910035 ] } },
{ "type": "Feature", "properties": { "osm_id": "4817895221", "code": 2405, "fclass": "hostel", "name": null, "1": true, "2": false, "3": false, "41": false, "42": false, "51": false, "52": false, "6": false, "7": false }, "geometry": { "type": "Point", "coordinates": [ 57.503791322561504, -20.175374309874741 ] } },
{ "type": "Feature", "properties": { "osm_id": "4820582721", "code": 2301, "fclass": "restaurant", "name": null, "1": true, "2": false, "3": false, "41": true, "42": false, "51": false, "52": false, "6": false, "7": false }, "geometry": { "type": "Point", "coordinates": [ 57.504023322651172, -20.160809009918175 ] } },
{ "type": "Feature", "properties": { "osm_id": "4829088123", "code": 2544, "fclass": "furniture_shop", "name": null, "1": true, "2": false, "3": false, "41": false, "42": false, "51": false, "52": false, "6": false, "7": false }, "geometry": { "type": "Point", "coordinates": [ 57.504300922634684, -20.162826009910329 ] } },
{ "type": "Feature", "properties": { "osm_id": "4873680328", "code": 2301, "fclass": "restaurant", "name": null, "1": true, "2": false, "3": false, "41": true, "42": false, "51": false, "52": false, "6": false, "7": false }, "geometry": { "type": "Point", "coordinates": [ 57.504341822637883, -20.162239209911917 ] } },
{ "type": "Feature", "properties": { "osm_id": "4873877177", "code": 2303, "fclass": "cafe", "name": "Patisserie Financier;Yoga Plus Centre", "1": true, "2": false, "3": false, "41": true, "42": false, "51": false, "52": false, "6": false, "7": false }, "geometry": { "type": "Point", "coordinates": [ 57.496250622724283, -20.165325909950376 ] } },
{ "type": "Feature", "properties": { "osm_id": "4873906873", "code": 2521, "fclass": "gift_shop", "name": "Poncini", "1": true, "2": false, "3": false, "41": false, "42": false, "51": false, "52": false, "6": false, "7": false }, "geometry": { "type": "Point", "coordinates": [ 57.503965222633639, -20.163681609909656 ] } },
{ "type": "Feature", "properties": { "osm_id": "4873906879", "code": 2601, "fclass": "bank", "name": "Mauritius Commercial Bank", "1": true, "2": false, "3": false, "41": false, "42": false, "51": false, "52": true, "6": false, "7": false }, "geometry": { "type": "Point", "coordinates": [ 57.504096222630338, -20.163929109908125 ] } },
{ "type": "Feature", "properties": { "osm_id": "4873906880", "code": 2521, "fclass": "gift_shop", "name": "Lotus d'or", "1": true, "2": false, "3": false, "41": false, "42": false, "51": false, "52": false, "6": false, "7": false }, "geometry": { "type": "Point", "coordinates": [ 57.504263622628763, -20.163833409907397 ] } },
{ "type": "Feature", "properties": { "osm_id": "4873906887", "code": 2520, "fclass": "jeweller", "name": "Fibula", "1": true, "2": false, "3": false, "41": false, "42": false, "51": false, "52": false, "6": false, "7": false }, "geometry": { "type": "Point", "coordinates": [ 57.504491922630045, -20.163161609908144 ] } },
{ "type": "Feature", "properties": { "osm_id": "4873906892", "code": 2301, "fclass": "restaurant", "name": "Panarotti", "1": true, "2": false, "3": false, "41": true, "42": false, "51": false, "52": false, "6": false, "7": false }, "geometry": { "type": "Point", "coordinates": [ 57.503815222634955, -20.163785509910287 ] } },
{ "type": "Feature", "properties": { "osm_id": "4873994046", "code": 2602, "fclass": "atm", "name": "HSBC", "1": true, "2": false, "3": false, "41": false, "42": false, "51": false, "52": false, "6": false, "7": false }, "geometry": { "type": "Point", "coordinates": [ 57.502418122661048, -20.162560309922281 ] } },
{ "type": "Feature", "properties": { "osm_id": "4875657388", "code": 2303, "fclass": "cafe", "name": "Parliament Cafe", "1": true, "2": false, "3": false, "41": true, "42": false, "51": false, "52": false, "6": false, "7": false }, "geometry": { "type": "Point", "coordinates": [ 57.503291922643456, -20.16352630991415 ] } },
{ "type": "Feature", "properties": { "osm_id": "4875657390", "code": 2567, "fclass": "travel_agent", "name": "Swan", "1": true, "2": false, "3": false, "41": false, "42": false, "51": false, "52": false, "6": false, "7": false }, "geometry": { "type": "Point", "coordinates": [ 57.503279822643229, -20.163587009914 ] } },
{ "type": "Feature", "properties": { "osm_id": "4875657927", "code": 2120, "fclass": "doctors", "name": null, "1": true, "2": false, "3": true, "41": false, "42": false, "51": false, "52": false, "6": true, "7": false }, "geometry": { "type": "Point", "coordinates": [ 57.503429422641922, -20.163482209913486 ] } },
{ "type": "Feature", "properties": { "osm_id": "4875657928", "code": 2725, "fclass": "artwork", "name": null, "1": true, "2": false, "3": false, "41": false, "42": true, "51": false, "52": false, "6": false, "7": false }, "geometry": { "type": "Point", "coordinates": [ 57.503822422632723, -20.164119509909174 ] } },
{ "type": "Feature", "properties": { "osm_id": "4875657929", "code": 2724, "fclass": "memorial", "name": null, "1": true, "2": false, "3": false, "41": false, "42": false, "51": false, "52": false, "6": false, "7": true }, "geometry": { "type": "Point", "coordinates": [ 57.503096722637608, -20.164846709911195 ] } },
{ "type": "Feature", "properties": { "osm_id": "4875657929", "code": 2721, "fclass": "attraction", "name": null, "1": true, "2": false, "3": false, "41": false, "42": false, "51": false, "52": false, "6": false, "7": true }, "geometry": { "type": "Point", "coordinates": [ 57.503096722637608, -20.164846709911195 ] } },
{ "type": "Feature", "properties": { "osm_id": "4875659156", "code": 2512, "fclass": "clothes", "name": "Marlon", "1": true, "2": false, "3": false, "41": false, "42": false, "51": false, "52": false, "6": false, "7": false }, "geometry": { "type": "Point", "coordinates": [ 57.501237722687065, -20.160905009934392 ] } },
{ "type": "Feature", "properties": { "osm_id": "4875686694", "code": 2002, "fclass": "fire_station", "name": "St louis Fire Brigate", "1": true, "2": false, "3": false, "41": false, "42": false, "51": false, "52": false, "6": false, "7": false }, "geometry": { "type": "Point", "coordinates": [ 57.503977722627617, -20.16460010990679 ] } },
{ "type": "Feature", "properties": { "osm_id": "4875691875", "code": 2016, "fclass": "market_place", "name": "Le Souk du Vieux Conseil", "1": true, "2": false, "3": false, "41": false, "42": false, "51": true, "52": false, "6": false, "7": false }, "geometry": { "type": "Point", "coordinates": [ 57.503439022635746, -20.164435309910431 ] } },
{ "type": "Feature", "properties": { "osm_id": "4875691876", "code": 2519, "fclass": "optician", "name": "Mathieu", "1": true, "2": false, "3": false, "41": false, "42": false, "51": false, "52": false, "6": false, "7": false }, "geometry": { "type": "Point", "coordinates": [ 57.503886422634352, -20.163733009910001 ] } },
{ "type": "Feature", "properties": { "osm_id": "4875691877", "code": 2722, "fclass": "museum", "name": "Photo Museum", "1": true, "2": false, "3": false, "41": false, "42": true, "51": false, "52": false, "6": false, "7": false }, "geometry": { "type": "Point", "coordinates": [ 57.503500122636318, -20.164218409910788 ] } },
{ "type": "Feature", "properties": { "osm_id": "4875691879", "code": 2602, "fclass": "atm", "name": "SBM", "1": true, "2": false, "3": false, "41": false, "42": false, "51": false, "52": false, "6": false, "7": false }, "geometry": { "type": "Point", "coordinates": [ 57.504922622616881, -20.164344009901949 ] } },
{ "type": "Feature", "properties": { "osm_id": "4875706922", "code": 2301, "fclass": "restaurant", "name": null, "1": true, "2": false, "3": false, "41": true, "42": false, "51": false, "52": false, "6": false, "7": false }, "geometry": { "type": "Point", "coordinates": [ 57.503333822642574, -20.163577509913736 ] } },
{ "type": "Feature", "properties": { "osm_id": "4875709575", "code": 2601, "fclass": "bank", "name": "Banque des Mascareignes", "1": true, "2": false, "3": false, "41": false, "42": false, "51": false, "52": true, "6": false, "7": false }, "geometry": { "type": "Point", "coordinates": [ 57.502147222671944, -20.161408509927458 ] } },
{ "type": "Feature", "properties": { "osm_id": "4875709576", "code": 2601, "fclass": "bank", "name": "Banyan Tree Bank Limited", "1": true, "2": false, "3": false, "41": false, "42": false, "51": false, "52": true, "6": false, "7": false }, "geometry": { "type": "Point", "coordinates": [ 57.502243822669897, -20.16153180992649 ] } },
{ "type": "Feature", "properties": { "osm_id": "4875709577", "code": 2601, "fclass": "bank", "name": "MauBank", "1": true, "2": false, "3": false, "41": false, "42": false, "51": false, "52": true, "6": false, "7": false }, "geometry": { "type": "Point", "coordinates": [ 57.502372522667457, -20.161647709925337 ] } },
{ "type": "Feature", "properties": { "osm_id": "4875709579", "code": 2601, "fclass": "bank", "name": "ABC Banking Corporation", "1": true, "2": false, "3": false, "41": false, "42": false, "51": false, "52": true, "6": false, "7": false }, "geometry": { "type": "Point", "coordinates": [ 57.502769022660466, -20.161931909922171 ] } },
{ "type": "Feature", "properties": { "osm_id": "4875709584", "code": 2301, "fclass": "restaurant", "name": "Debonair & Steers", "1": true, "2": false, "3": false, "41": true, "42": false, "51": false, "52": false, "6": false, "7": false }, "geometry": { "type": "Point", "coordinates": [ 57.502702422663205, -20.161637609923485 ] } },
{ "type": "Feature", "properties": { "osm_id": "4875709585", "code": 2601, "fclass": "bank", "name": "Barclays", "1": true, "2": false, "3": false, "41": false, "42": false, "51": false, "52": true, "6": false, "7": false }, "geometry": { "type": "Point", "coordinates": [ 57.502652822664579, -20.161521309924119 ] } },
{ "type": "Feature", "properties": { "osm_id": "4875709589", "code": 2567, "fclass": "travel_agent", "name": "Singapore Airline", "1": true, "2": false, "3": false, "41": false, "42": false, "51": false, "52": false, "6": false, "7": false }, "geometry": { "type": "Point", "coordinates": [ 57.502390022669886, -20.161229509926581 ] } },
{ "type": "Feature", "properties": { "osm_id": "4875709590", "code": 2302, "fclass": "fast_food", "name": "Subway", "1": true, "2": false, "3": false, "41": true, "42": false, "51": false, "52": false, "6": false, "7": false }, "geometry": { "type": "Point", "coordinates": [ 57.502187622673354, -20.161100909928159 ] } },
{ "type": "Feature", "properties": { "osm_id": "4875714858", "code": 2303, "fclass": "cafe", "name": "Sandwich Cafe", "1": true, "2": false, "3": false, "41": true, "42": false, "51": false, "52": false, "6": false, "7": false }, "geometry": { "type": "Point", "coordinates": [ 57.504729322618005, -20.164565909902414 ] } },
{ "type": "Feature", "properties": { "osm_id": "4875714859", "code": 2301, "fclass": "restaurant", "name": "The higher taste Veg Centre", "1": true, "2": false, "3": false, "41": true, "42": false, "51": false, "52": false, "6": false, "7": false }, "geometry": { "type": "Point", "coordinates": [ 57.504645322618792, -20.164612809902781 ] } },
{ "type": "Feature", "properties": { "osm_id": "4875717825", "code": 2517, "fclass": "shoe_shop", "name": "Shoe bazar & Home health", "1": true, "2": false, "3": false, "41": false, "42": false, "51": false, "52": false, "6": false, "7": false }, "geometry": { "type": "Point", "coordinates": [ 57.502080222675474, -20.160990409929152 ] } },
{ "type": "Feature", "properties": { "osm_id": "4875717826", "code": 2512, "fclass": "clothes", "name": null, "1": true, "2": false, "3": false, "41": false, "42": false, "51": false, "52": false, "6": false, "7": false }, "geometry": { "type": "Point", "coordinates": [ 57.502002222675898, -20.161082009929316 ] } },
{ "type": "Feature", "properties": { "osm_id": "4875728023", "code": 2724, "fclass": "memorial", "name": "Léoville L'Homme", "1": true, "2": false, "3": false, "41": false, "42": false, "51": false, "52": false, "6": false, "7": true }, "geometry": { "type": "Point", "coordinates": [ 57.502202222655065, -20.16394640991933 ] } },
{ "type": "Feature", "properties": { "osm_id": "4875728023", "code": 2721, "fclass": "attraction", "name": "Léoville L'Homme", "1": true, "2": false, "3": false, "41": false, "42": false, "51": false, "52": false, "6": false, "7": true }, "geometry": { "type": "Point", "coordinates": [ 57.502202222655065, -20.16394640991933 ] } },
{ "type": "Feature", "properties": { "osm_id": "4875728324", "code": 2721, "fclass": "attraction", "name": null, "1": true, "2": false, "3": false, "41": false, "42": false, "51": false, "52": false, "6": false, "7": true }, "geometry": { "type": "Point", "coordinates": [ 57.504345522630565, -20.163380709908346 ] } },
{ "type": "Feature", "properties": { "osm_id": "4875728325", "code": 2724, "fclass": "memorial", "name": "Marie Barthelemy", "1": true, "2": false, "3": false, "41": false, "42": false, "51": false, "52": false, "6": false, "7": true }, "geometry": { "type": "Point", "coordinates": [ 57.50275402264473, -20.16443330991455 ] } },
{ "type": "Feature", "properties": { "osm_id": "4875728325", "code": 2721, "fclass": "attraction", "name": "Marie Barthelemy", "1": true, "2": false, "3": false, "41": false, "42": false, "51": false, "52": false, "6": false, "7": true }, "geometry": { "type": "Point", "coordinates": [ 57.50275402264473, -20.16443330991455 ] } },
{ "type": "Feature", "properties": { "osm_id": "4875741732", "code": 2511, "fclass": "convenience", "name": "Tabajie Beaulieu", "1": true, "2": false, "3": false, "41": false, "42": false, "51": true, "52": false, "6": false, "7": false }, "geometry": { "type": "Point", "coordinates": [ 57.500568122675283, -20.164132309928455 ] } },
{ "type": "Feature", "properties": { "osm_id": "4875742929", "code": 2303, "fclass": "cafe", "name": "Artisan Cafe", "1": true, "2": false, "3": false, "41": true, "42": false, "51": false, "52": false, "6": false, "7": false }, "geometry": { "type": "Point", "coordinates": [ 57.500859222687119, -20.161674009934316 ] } },
{ "type": "Feature", "properties": { "osm_id": "4875742930", "code": 2301, "fclass": "restaurant", "name": "Chinese Resto Rapid", "1": true, "2": false, "3": false, "41": true, "42": false, "51": false, "52": false, "6": false, "7": false }, "geometry": { "type": "Point", "coordinates": [ 57.500857322687608, -20.161601409934512 ] } },
{ "type": "Feature", "properties": { "osm_id": "4875742931", "code": 2529, "fclass": "beauty_shop", "name": "Chic & Glamour Beauty Lounge", "1": true, "2": false, "3": false, "41": false, "42": false, "51": false, "52": false, "6": false, "7": false }, "geometry": { "type": "Point", "coordinates": [ 57.500953822686547, -20.161568009934058 ] } },
{ "type": "Feature", "properties": { "osm_id": "4875763032", "code": 2525, "fclass": "mobile_phone_shop", "name": "SY Loulou Telephone Shop", "1": true, "2": false, "3": false, "41": false, "42": false, "51": false, "52": false, "6": false, "7": false }, "geometry": { "type": "Point", "coordinates": [ 57.499856622681286, -20.164655109931061 ] } },
{ "type": "Feature", "properties": { "osm_id": "4875763918", "code": 2512, "fclass": "clothes", "name": "In Style", "1": true, "2": false, "3": false, "41": false, "42": false, "51": false, "52": false, "6": false, "7": false }, "geometry": { "type": "Point", "coordinates": [ 57.499408822686881, -20.164698309933566 ] } },
{ "type": "Feature", "properties": { "osm_id": "4875774008", "code": 2520, "fclass": "jeweller", "name": "TAJ Jeweller", "1": true, "2": false, "3": false, "41": false, "42": false, "51": false, "52": false, "6": false, "7": false }, "geometry": { "type": "Point", "coordinates": [ 57.499918322680728, -20.16461490993084 ] } },
{ "type": "Feature", "properties": { "osm_id": "4875777110", "code": 2520, "fclass": "jeweller", "name": "Gold Story Ltd/Point Or", "1": true, "2": false, "3": false, "41": false, "42": false, "51": false, "52": false, "6": false, "7": false }, "geometry": { "type": "Point", "coordinates": [ 57.499896222680803, -20.16464890993079 ] } },
{ "type": "Feature", "properties": { "osm_id": "4875777164", "code": 2601, "fclass": "bank", "name": "MCB", "1": true, "2": false, "3": false, "41": false, "42": false, "51": false, "52": true, "6": false, "7": false }, "geometry": { "type": "Point", "coordinates": [ 57.502960122661051, -20.161445309922573 ] } },
{ "type": "Feature", "properties": { "osm_id": "4875777169", "code": 2523, "fclass": "stationery", "name": "Allagapen Stationery", "1": true, "2": false, "3": false, "41": false, "42": false, "51": false, "52": true, "6": false, "7": false }, "geometry": { "type": "Point", "coordinates": [ 57.503308622658409, -20.161140109921401 ] } },
{ "type": "Feature", "properties": { "osm_id": "4875777173", "code": 2006, "fclass": "telephone", "name": "Ephone", "1": true, "2": false, "3": false, "41": false, "42": false, "51": false, "52": false, "6": false, "7": false }, "geometry": { "type": "Point", "coordinates": [ 57.503394522657686, -20.161076609921096 ] } },
{ "type": "Feature", "properties": { "osm_id": "4875777174", "code": 2512, "fclass": "clothes", "name": "Citadel", "1": true, "2": false, "3": false, "41": false, "42": false, "51": false, "52": false, "6": false, "7": false }, "geometry": { "type": "Point", "coordinates": [ 57.503429322657105, -20.16109930992079 ] } },
{ "type": "Feature", "properties": { "osm_id": "4875777175", "code": 2512, "fclass": "clothes", "name": "Citadel", "1": true, "2": false, "3": false, "41": false, "42": false, "51": false, "52": false, "6": false, "7": false }, "geometry": { "type": "Point", "coordinates": [ 57.503491022656078, -20.161132009920326 ] } },
{ "type": "Feature", "properties": { "osm_id": "4875777177", "code": 2517, "fclass": "shoe_shop", "name": "Famous Footwear", "1": true, "2": false, "3": false, "41": false, "42": false, "51": false, "52": false, "6": false, "7": false }, "geometry": { "type": "Point", "coordinates": [ 57.503630522653182, -20.161300709919001 ] } },
{ "type": "Feature", "properties": { "osm_id": "4875777180", "code": 2515, "fclass": "bookshop", "name": "Corner House", "1": true, "2": false, "3": false, "41": false, "42": false, "51": false, "52": false, "6": false, "7": false }, "geometry": { "type": "Point", "coordinates": [ 57.503824822649989, -20.16140190991754 ] } },
{ "type": "Feature", "properties": { "osm_id": "4875777182", "code": 2567, "fclass": "travel_agent", "name": "Atom Travel", "1": true, "2": false, "3": false, "41": false, "42": false, "51": false, "52": false, "6": false, "7": false }, "geometry": { "type": "Point", "coordinates": [ 57.503891822649322, -20.161369109917253 ] } },
{ "type": "Feature", "properties": { "osm_id": "4875777184", "code": 2601, "fclass": "bank", "name": "Bank of Mauritius", "1": true, "2": false, "3": false, "41": false, "42": false, "51": false, "52": true, "6": false, "7": false }, "geometry": { "type": "Point", "coordinates": [ 57.503719522649988, -20.161617809917445 ] } },
{ "type": "Feature", "properties": { "osm_id": "4875777185", "code": 2520, "fclass": "jeweller", "name": "Bijouterie Platinoir", "1": true, "2": false, "3": false, "41": false, "42": false, "51": false, "52": false, "6": false, "7": false }, "geometry": { "type": "Point", "coordinates": [ 57.503797322651344, -20.161245709918166 ] } },
{ "type": "Feature", "properties": { "osm_id": "4875779647", "code": 2520, "fclass": "jeweller", "name": "Golden Touch", "1": true, "2": false, "3": false, "41": false, "42": false, "51": false, "52": false, "6": false, "7": false }, "geometry": { "type": "Point", "coordinates": [ 57.500961222685866, -20.161660509933725 ] } },
{ "type": "Feature", "properties": { "osm_id": "4875779651", "code": 2567, "fclass": "travel_agent", "name": "Silver Wings Travel Ltd", "1": true, "2": false, "3": false, "41": false, "42": false, "51": false, "52": false, "6": false, "7": false }, "geometry": { "type": "Point", "coordinates": [ 57.500113422690141, -20.162733709935445 ] } },
{ "type": "Feature", "properties": { "osm_id": "4875779653", "code": 2512, "fclass": "clothes", "name": "Magasin Sarmalux", "1": true, "2": false, "3": false, "41": false, "42": false, "51": false, "52": false, "6": false, "7": false }, "geometry": { "type": "Point", "coordinates": [ 57.500080022689971, -20.162830909935391 ] } },
{ "type": "Feature", "properties": { "osm_id": "4875779654", "code": 2525, "fclass": "mobile_phone_shop", "name": "Emtel", "1": true, "2": false, "3": false, "41": false, "42": false, "51": false, "52": false, "6": false, "7": false }, "geometry": { "type": "Point", "coordinates": [ 57.500079822689401, -20.16291890993509 ] } },
{ "type": "Feature", "properties": { "osm_id": "4875786361", "code": 2301, "fclass": "restaurant", "name": "Briani Nafy", "1": true, "2": false, "3": false, "41": true, "42": false, "51": false, "52": false, "6": false, "7": false }, "geometry": { "type": "Point", "coordinates": [ 57.50021112268049, -20.164051709930813 ] } },
{ "type": "Feature", "properties": { "osm_id": "4875786362", "code": 2302, "fclass": "fast_food", "name": "So Chaud Fusion Fast Food", "1": true, "2": false, "3": false, "41": true, "42": false, "51": false, "52": false, "6": false, "7": false }, "geometry": { "type": "Point", "coordinates": [ 57.500282522680159, -20.163953809930689 ] } },
{ "type": "Feature", "properties": { "osm_id": "4875789041", "code": 2512, "fclass": "clothes", "name": "Baobab company", "1": true, "2": false, "3": false, "41": false, "42": false, "51": false, "52": false, "6": false, "7": false }, "geometry": { "type": "Point", "coordinates": [ 57.502098422676788, -20.160747009929782 ] } },
{ "type": "Feature", "properties": { "osm_id": "4875789043", "code": 2511, "fclass": "convenience", "name": "Tabagie Joomun", "1": true, "2": false, "3": false, "41": false, "42": false, "51": true, "52": false, "6": false, "7": false }, "geometry": { "type": "Point", "coordinates": [ 57.502208722676109, -20.160625409929501 ] } },
{ "type": "Feature", "properties": { "osm_id": "4875789044", "code": 2302, "fclass": "fast_food", "name": "Briani Deg", "1": true, "2": false, "3": false, "41": true, "42": false, "51": false, "52": false, "6": false, "7": false }, "geometry": { "type": "Point", "coordinates": [ 57.502246522675776, -20.160599909929335 ] } },
{ "type": "Feature", "properties": { "osm_id": "4875789046", "code": 2517, "fclass": "shoe_shop", "name": "Magasin de chaussures", "1": true, "2": false, "3": false, "41": false, "42": false, "51": false, "52": false, "6": false, "7": false }, "geometry": { "type": "Point", "coordinates": [ 57.502305222675169, -20.160574909929128 ] } },
{ "type": "Feature", "properties": { "osm_id": "4875789050", "code": 2302, "fclass": "fast_food", "name": "Madina Snack", "1": true, "2": false, "3": false, "41": true, "42": false, "51": false, "52": false, "6": false, "7": false }, "geometry": { "type": "Point", "coordinates": [ 57.50290232267097, -20.160006709927298 ] } },
{ "type": "Feature", "properties": { "osm_id": "4875789053", "code": 2101, "fclass": "pharmacy", "name": "Eiman Pharmacy", "1": true, "2": false, "3": false, "41": false, "42": false, "51": false, "52": true, "6": false, "7": false }, "geometry": { "type": "Point", "coordinates": [ 57.502965322670498, -20.159949709927087 ] } },
{ "type": "Feature", "properties": { "osm_id": "4875789055", "code": 2525, "fclass": "mobile_phone_shop", "name": "MBK Phone", "1": true, "2": false, "3": false, "41": false, "42": false, "51": false, "52": false, "6": false, "7": false }, "geometry": { "type": "Point", "coordinates": [ 57.503022022670194, -20.159880209926964 ] } },
{ "type": "Feature", "properties": { "osm_id": "4875789056", "code": 2512, "fclass": "clothes", "name": "Magasin Ruhomutally", "1": true, "2": false, "3": false, "41": false, "42": false, "51": false, "52": false, "6": false, "7": false }, "geometry": { "type": "Point", "coordinates": [ 57.503037422670154, -20.159855009926968 ] } },
{ "type": "Feature", "properties": { "osm_id": "4875789057", "code": 2528, "fclass": "greengrocer", "name": "Sandrasagren & Co Ltd", "1": true, "2": false, "3": false, "41": false, "42": false, "51": false, "52": false, "6": false, "7": false }, "geometry": { "type": "Point", "coordinates": [ 57.503060422669968, -20.159839609926877 ] } },
{ "type": "Feature", "properties": { "osm_id": "4875789058", "code": 2512, "fclass": "clothes", "name": "Magasin France", "1": true, "2": false, "3": false, "41": false, "42": false, "51": false, "52": false, "6": false, "7": false }, "geometry": { "type": "Point", "coordinates": [ 57.503084522669752, -20.159821609926798 ] } },
{ "type": "Feature", "properties": { "osm_id": "4875789060", "code": 2529, "fclass": "beauty_shop", "name": "Soft n Free", "1": true, "2": false, "3": false, "41": false, "42": false, "51": false, "52": false, "6": false, "7": false }, "geometry": { "type": "Point", "coordinates": [ 57.503183722668958, -20.159740809926454 ] } },
{ "type": "Feature", "properties": { "osm_id": "4875789061", "code": 2512, "fclass": "clothes", "name": "Perle D'Orient", "1": true, "2": false, "3": false, "41": false, "42": false, "51": false, "52": false, "6": false, "7": false }, "geometry": { "type": "Point", "coordinates": [ 57.503225822668597, -20.159711809926296 ] } },
{ "type": "Feature", "properties": { "osm_id": "4875789065", "code": 2512, "fclass": "clothes", "name": "Meenara", "1": true, "2": false, "3": false, "41": false, "42": false, "51": false, "52": false, "6": false, "7": false }, "geometry": { "type": "Point", "coordinates": [ 57.503386622667676, -20.159524009925953 ] } },
{ "type": "Feature", "properties": { "osm_id": "4875789066", "code": 2517, "fclass": "shoe_shop", "name": "Feu Rouge", "1": true, "2": false, "3": false, "41": false, "42": false, "51": false, "52": false, "6": false, "7": false }, "geometry": { "type": "Point", "coordinates": [ 57.503428122667295, -20.159499609925724 ] } },
{ "type": "Feature", "properties": { "osm_id": "4875789067", "code": 2511, "fclass": "convenience", "name": "V. Proag", "1": true, "2": false, "3": false, "41": false, "42": false, "51": true, "52": false, "6": false, "7": false }, "geometry": { "type": "Point", "coordinates": [ 57.503493522665543, -20.159638209924921 ] } },
{ "type": "Feature", "properties": { "osm_id": "4875789070", "code": 2512, "fclass": "clothes", "name": "Nailah Fashion", "1": true, "2": false, "3": false, "41": false, "42": false, "51": false, "52": false, "6": false, "7": false }, "geometry": { "type": "Point", "coordinates": [ 57.503543122664603, -20.159686409924483 ] } },
{ "type": "Feature", "properties": { "osm_id": "4875789072", "code": 2515, "fclass": "bookshop", "name": "Friends", "1": true, "2": false, "3": false, "41": false, "42": false, "51": false, "52": false, "6": false, "7": false }, "geometry": { "type": "Point", "coordinates": [ 57.503610122663346, -20.159746709923898 ] } },
{ "type": "Feature", "properties": { "osm_id": "4875789073", "code": 2543, "fclass": "doityourself", "name": "Joonas & Co Ltd", "1": true, "2": false, "3": false, "41": false, "42": false, "51": false, "52": true, "6": false, "7": false }, "geometry": { "type": "Point", "coordinates": [ 57.503750922660991, -20.159824509922796 ] } },
{ "type": "Feature", "properties": { "osm_id": "4875789074", "code": 2501, "fclass": "supermarket", "name": "Frico Supermarket", "1": true, "2": false, "3": false, "41": false, "42": false, "51": true, "52": false, "6": false, "7": false }, "geometry": { "type": "Point", "coordinates": [ 57.503779322660371, -20.159864709922548 ] } },
{ "type": "Feature", "properties": { "osm_id": "4875789075", "code": 2543, "fclass": "doityourself", "name": "Abdoul Rahim Oosman & Co", "1": true, "2": false, "3": false, "41": false, "42": false, "51": false, "52": true, "6": false, "7": false }, "geometry": { "type": "Point", "coordinates": [ 57.503923422657678, -20.159991409921293 ] } },
{ "type": "Feature", "properties": { "osm_id": "4875789076", "code": 2543, "fclass": "doityourself", "name": "Onsiong", "1": true, "2": false, "3": false, "41": false, "42": false, "51": false, "52": true, "6": false, "7": false }, "geometry": { "type": "Point", "coordinates": [ 57.503993222656419, -20.160044309920703 ] } },
{ "type": "Feature", "properties": { "osm_id": "4875789078", "code": 2546, "fclass": "computer_shop", "name": "Celebrity", "1": true, "2": false, "3": false, "41": false, "42": false, "51": false, "52": false, "6": false, "7": false }, "geometry": { "type": "Point", "coordinates": [ 57.503450622665909, -20.159671809925069 ] } },
{ "type": "Feature", "properties": { "osm_id": "4875789083", "code": 2512, "fclass": "clothes", "name": "Magasin Emirates", "1": true, "2": false, "3": false, "41": false, "42": false, "51": false, "52": false, "6": false, "7": false }, "geometry": { "type": "Point", "coordinates": [ 57.503354122666622, -20.159760309925357 ] } },
{ "type": "Feature", "properties": { "osm_id": "4875789084", "code": 2528, "fclass": "greengrocer", "name": "SKC Surat", "1": true, "2": false, "3": false, "41": false, "42": false, "51": false, "52": false, "6": false, "7": false }, "geometry": { "type": "Point", "coordinates": [ 57.503325022666864, -20.159780709925446 ] } },
{ "type": "Feature", "properties": { "osm_id": "4875789086", "code": 2561, "fclass": "hairdresser", "name": null, "1": true, "2": false, "3": false, "41": false, "42": false, "51": false, "52": false, "6": false, "7": false }, "geometry": { "type": "Point", "coordinates": [ 57.503276522667257, -20.159818909925672 ] } },
{ "type": "Feature", "properties": { "osm_id": "4875789090", "code": 2512, "fclass": "clothes", "name": "Etihaad", "1": true, "2": false, "3": false, "41": false, "42": false, "51": false, "52": false, "6": false, "7": false }, "geometry": { "type": "Point", "coordinates": [ 57.502970522669379, -20.160113209926564 ] } },
{ "type": "Feature", "properties": { "osm_id": "4875789091", "code": 2101, "fclass": "pharmacy", "name": "Phamacy Farquar", "1": true, "2": false, "3": false, "41": false, "42": false, "51": false, "52": true, "6": false, "7": false }, "geometry": { "type": "Point", "coordinates": [ 57.503178322668028, -20.159900409925999 ] } },
{ "type": "Feature", "properties": { "osm_id": "4875789093", "code": 2512, "fclass": "clothes", "name": "Trendy Accessories", "1": true, "2": false, "3": false, "41": false, "42": false, "51": false, "52": false, "6": false, "7": false }, "geometry": { "type": "Point", "coordinates": [ 57.502328122673873, -20.160733909928474 ] } },
{ "type": "Feature", "properties": { "osm_id": "4875789095", "code": 2302, "fclass": "fast_food", "name": "Coin Soif", "1": true, "2": false, "3": false, "41": true, "42": false, "51": false, "52": false, "6": false, "7": false }, "geometry": { "type": "Point", "coordinates": [ 57.502245122674651, -20.160780909928807 ] } },
{ "type": "Feature", "properties": { "osm_id": "4875789096", "code": 2512, "fclass": "clothes", "name": null, "1": true, "2": false, "3": false, "41": false, "42": false, "51": false, "52": false, "6": false, "7": false }, "geometry": { "type": "Point", "coordinates": [ 57.502244922674492, -20.160806909928734 ] } },
{ "type": "Feature", "properties": { "osm_id": "4875791740", "code": 2301, "fclass": "restaurant", "name": "Sifu dim sum", "1": true, "2": false, "3": false, "41": true, "42": false, "51": false, "52": false, "6": false, "7": false }, "geometry": { "type": "Point", "coordinates": [ 57.503968922650351, -20.161047509917765 ] } },
{ "type": "Feature", "properties": { "osm_id": "4875794928", "code": 2519, "fclass": "optician", "name": "Optissimo", "1": true, "2": false, "3": false, "41": false, "42": false, "51": false, "52": false, "6": false, "7": false }, "geometry": { "type": "Point", "coordinates": [ 57.500601322673262, -20.164381209927488 ] } },
{ "type": "Feature", "properties": { "osm_id": "4875794930", "code": 2302, "fclass": "fast_food", "name": "Chick n Bite", "1": true, "2": false, "3": false, "41": true, "42": false, "51": false, "52": false, "6": false, "7": false }, "geometry": { "type": "Point", "coordinates": [ 57.500629322672758, -20.164402909927251 ] } },
{ "type": "Feature", "properties": { "osm_id": "4875798485", "code": 2007, "fclass": "library", "name": "National Library", "1": true, "2": false, "3": false, "41": false, "42": true, "51": false, "52": false, "6": false, "7": false }, "geometry": { "type": "Point", "coordinates": [ 57.500653122672261, -20.164433209927015 ] } },
{ "type": "Feature", "properties": { "osm_id": "4875799918", "code": 2601, "fclass": "bank", "name": "Afrasia", "1": true, "2": false, "3": false, "41": false, "42": false, "51": false, "52": true, "6": false, "7": false }, "geometry": { "type": "Point", "coordinates": [ 57.501926522667873, -20.162501409925415 ] } },
{ "type": "Feature", "properties": { "osm_id": "4875799919", "code": 2601, "fclass": "bank", "name": "Development Bank of Mauritius", "1": true, "2": false, "3": false, "41": false, "42": false, "51": false, "52": true, "6": false, "7": false }, "geometry": { "type": "Point", "coordinates": [ 57.502130322664193, -20.162660009923684 ] } },
{ "type": "Feature", "properties": { "osm_id": "4875800157", "code": 2567, "fclass": "travel_agent", "name": "R Link Travel & Tours", "1": true, "2": false, "3": false, "41": false, "42": false, "51": false, "52": false, "6": false, "7": false }, "geometry": { "type": "Point", "coordinates": [ 57.500679522671767, -20.164456709926785 ] } },
{ "type": "Feature", "properties": { "osm_id": "4875800158", "code": 2301, "fclass": "restaurant", "name": "The Sandwich Bar", "1": true, "2": false, "3": false, "41": true, "42": false, "51": false, "52": false, "6": false, "7": false }, "geometry": { "type": "Point", "coordinates": [ 57.50073452267069, -20.164511409926288 ] } },
{ "type": "Feature", "properties": { "osm_id": "4875800917", "code": 2512, "fclass": "clothes", "name": "Le Workshop", "1": true, "2": false, "3": false, "41": false, "42": false, "51": false, "52": false, "6": false, "7": false }, "geometry": { "type": "Point", "coordinates": [ 57.500651122683969, -20.162597309932654 ] } },
{ "type": "Feature", "properties": { "osm_id": "4875800918", "code": 2567, "fclass": "travel_agent", "name": "Arcadia Travel", "1": true, "2": false, "3": false, "41": false, "42": false, "51": false, "52": false, "6": false, "7": false }, "geometry": { "type": "Point", "coordinates": [ 57.50101832268146, -20.162236209931638 ] } },
{ "type": "Feature", "properties": { "osm_id": "4875801586", "code": 2567, "fclass": "travel_agent", "name": "Rosina Agencies", "1": true, "2": false, "3": false, "41": false, "42": false, "51": false, "52": false, "6": false, "7": false }, "geometry": { "type": "Point", "coordinates": [ 57.504002522646225, -20.161629109915786 ] } },
{ "type": "Feature", "properties": { "osm_id": "4875801588", "code": 2525, "fclass": "mobile_phone_shop", "name": "Grand Zone", "1": true, "2": false, "3": false, "41": false, "42": false, "51": false, "52": false, "6": false, "7": false }, "geometry": { "type": "Point", "coordinates": [ 57.504065622644994, -20.161690809915171 ] } },
{ "type": "Feature", "properties": { "osm_id": "4875806021", "code": 2601, "fclass": "bank", "name": "Afrasia", "1": true, "2": false, "3": false, "41": false, "42": false, "51": false, "52": true, "6": false, "7": false }, "geometry": { "type": "Point", "coordinates": [ 57.501631422672837, -20.162327709927673 ] } },
{ "type": "Feature", "properties": { "osm_id": "4875806023", "code": 2512, "fclass": "clothes", "name": "Woolworths", "1": true, "2": false, "3": false, "41": false, "42": false, "51": false, "52": false, "6": false, "7": false }, "geometry": { "type": "Point", "coordinates": [ 57.501186222680523, -20.162035609931209 ] } },
{ "type": "Feature", "properties": { "osm_id": "4875806024", "code": 2601, "fclass": "bank", "name": "State Bank of Mauritius Ltd", "1": true, "2": false, "3": false, "41": false, "42": false, "51": false, "52": true, "6": false, "7": false }, "geometry": { "type": "Point", "coordinates": [ 57.501848722672037, -20.162005409927385 ] } },
{ "type": "Feature", "properties": { "osm_id": "4875817976", "code": 2515, "fclass": "bookshop", "name": "Edition Ocena Indien", "1": true, "2": false, "3": false, "41": false, "42": false, "51": false, "52": false, "6": false, "7": false }, "geometry": { "type": "Point", "coordinates": [ 57.504097622644395, -20.161720609914923 ] } },
{ "type": "Feature", "properties": { "osm_id": "4875837021", "code": 2567, "fclass": "travel_agent", "name": "Itineris Your Travel Design", "1": true, "2": false, "3": false, "41": false, "42": false, "51": false, "52": false, "6": false, "7": false }, "geometry": { "type": "Point", "coordinates": [ 57.500874722668428, -20.164579809925261 ] } },
{ "type": "Feature", "properties": { "osm_id": "4875838180", "code": 2567, "fclass": "travel_agent", "name": "Harel Mallac Carlson Wagonlit Travel", "1": true, "2": false, "3": false, "41": false, "42": false, "51": false, "52": false, "6": false, "7": false }, "geometry": { "type": "Point", "coordinates": [ 57.500913022667696, -20.164613809924948 ] } },
{ "type": "Feature", "properties": { "osm_id": "4875838294", "code": 2512, "fclass": "clothes", "name": "SL Chettiar", "1": true, "2": false, "3": false, "41": false, "42": false, "51": false, "52": false, "6": false, "7": false }, "geometry": { "type": "Point", "coordinates": [ 57.500694422670939, -20.164555909926403 ] } },
{ "type": "Feature", "properties": { "osm_id": "4875839595", "code": 2512, "fclass": "clothes", "name": "Two Seas Boutique", "1": true, "2": false, "3": false, "41": false, "42": false, "51": false, "52": false, "6": false, "7": false }, "geometry": { "type": "Point", "coordinates": [ 57.502929922659447, -20.161754909921765 ] } },
{ "type": "Feature", "properties": { "osm_id": "4875839597", "code": 2520, "fclass": "jeweller", "name": "Caunhye Bijoux", "1": true, "2": false, "3": false, "41": false, "42": false, "51": false, "52": false, "6": false, "7": false }, "geometry": { "type": "Point", "coordinates": [ 57.503032722657544, -20.161845309920867 ] } },
{ "type": "Feature", "properties": { "osm_id": "4875839598", "code": 2512, "fclass": "clothes", "name": "Aum Collection", "1": true, "2": false, "3": false, "41": false, "42": false, "51": false, "52": false, "6": false, "7": false }, "geometry": { "type": "Point", "coordinates": [ 57.50309802265626, -20.161912509920302 ] } },
{ "type": "Feature", "properties": { "osm_id": "4875845192", "code": 2512, "fclass": "clothes", "name": "MC Boutik", "1": true, "2": false, "3": false, "41": false, "42": false, "51": false, "52": false, "6": false, "7": false }, "geometry": { "type": "Point", "coordinates": [ 57.500632722671348, -20.164616409926573 ] } },
{ "type": "Feature", "properties": { "osm_id": "4875847916", "code": 2567, "fclass": "travel_agent", "name": "Harel Mallac Aviation", "1": true, "2": false, "3": false, "41": false, "42": false, "51": false, "52": false, "6": false, "7": false }, "geometry": { "type": "Point", "coordinates": [ 57.500742022669982, -20.164610109925949 ] } },
{ "type": "Feature", "properties": { "osm_id": "4875869125", "code": 2517, "fclass": "shoe_shop", "name": null, "1": true, "2": false, "3": false, "41": false, "42": false, "51": false, "52": false, "6": false, "7": false }, "geometry": { "type": "Point", "coordinates": [ 57.503453322667376, -20.15943500992574 ] } },
{ "type": "Feature", "properties": { "osm_id": "4875878417", "code": 2512, "fclass": "clothes", "name": "Top Collection", "1": true, "2": false, "3": false, "41": false, "42": false, "51": false, "52": false, "6": false, "7": false }, "geometry": { "type": "Point", "coordinates": [ 57.501125522673028, -20.16334060992757 ] } },
{ "type": "Feature", "properties": { "osm_id": "4875878620", "code": 2512, "fclass": "clothes", "name": "Chloé", "1": true, "2": false, "3": false, "41": false, "42": false, "51": false, "52": false, "6": false, "7": false }, "geometry": { "type": "Point", "coordinates": [ 57.501147622672256, -20.163416009927221 ] } },
{ "type": "Feature", "properties": { "osm_id": "4875878943", "code": 2521, "fclass": "gift_shop", "name": "Sweet Spot", "1": true, "2": false, "3": false, "41": false, "42": false, "51": false, "52": false, "6": false, "7": false }, "geometry": { "type": "Point", "coordinates": [ 57.501056022673694, -20.163379609927897 ] } },
{ "type": "Feature", "properties": { "osm_id": "4875880919", "code": 2301, "fclass": "restaurant", "name": "Lazeza Food", "1": true, "2": false, "3": false, "41": true, "42": false, "51": false, "52": false, "6": false, "7": false }, "geometry": { "type": "Point", "coordinates": [ 57.501086222672932, -20.163438509927484 ] } },
{ "type": "Feature", "properties": { "osm_id": "4875881367", "code": 2512, "fclass": "clothes", "name": "Dallon Influence", "1": true, "2": false, "3": false, "41": false, "42": false, "51": false, "52": false, "6": false, "7": false }, "geometry": { "type": "Point", "coordinates": [ 57.501174022672274, -20.163357409927247 ] } },
{ "type": "Feature", "properties": { "osm_id": "4875888421", "code": 2012, "fclass": "community_centre", "name": null, "1": true, "2": false, "3": false, "41": false, "42": true, "51": false, "52": false, "6": false, "7": false }, "geometry": { "type": "Point", "coordinates": [ 57.503981022658067, -20.159810409921498 ] } },
{ "type": "Feature", "properties": { "osm_id": "4875889116", "code": 2513, "fclass": "florist", "name": "Sunlight Flour", "1": true, "2": false, "3": false, "41": false, "42": false, "51": false, "52": false, "6": false, "7": false }, "geometry": { "type": "Point", "coordinates": [ 57.504136722643743, -20.161742609914608 ] } },
{ "type": "Feature", "properties": { "osm_id": "4875889120", "code": 2513, "fclass": "florist", "name": "Fleuriste stapeulle", "1": true, "2": false, "3": false, "41": false, "42": false, "51": false, "52": false, "6": false, "7": false }, "geometry": { "type": "Point", "coordinates": [ 57.504270222640798, -20.161928309913254 ] } },
{ "type": "Feature", "properties": { "osm_id": "4875889459", "code": 2302, "fclass": "fast_food", "name": "Food Plus", "1": true, "2": false, "3": false, "41": true, "42": false, "51": false, "52": false, "6": false, "7": false }, "geometry": { "type": "Point", "coordinates": [ 57.499537722694143, -20.163289409937146 ] } },
{ "type": "Feature", "properties": { "osm_id": "4875889460", "code": 2512, "fclass": "clothes", "name": "Fashion Bazaar", "1": true, "2": false, "3": false, "41": false, "42": false, "51": false, "52": false, "6": false, "7": false }, "geometry": { "type": "Point", "coordinates": [ 57.499481622695846, -20.163137809937982 ] } },
{ "type": "Feature", "properties": { "osm_id": "4875889465", "code": 2302, "fclass": "fast_food", "name": "ADS Fast Food", "1": true, "2": false, "3": false, "41": true, "42": false, "51": false, "52": false, "6": false, "7": false }, "geometry": { "type": "Point", "coordinates": [ 57.49941152269588, -20.163277709937887 ] } },
{ "type": "Feature", "properties": { "osm_id": "4875889466", "code": 2101, "fclass": "pharmacy", "name": "Pharmacie Carbone", "1": true, "2": false, "3": false, "41": false, "42": false, "51": false, "52": true, "6": false, "7": false }, "geometry": { "type": "Point", "coordinates": [ 57.499360022696351, -20.163309609938178 ] } },
{ "type": "Feature", "properties": { "osm_id": "4875889467", "code": 2504, "fclass": "mall", "name": "Centre Commercial de Port-Louis", "1": true, "2": false, "3": false, "41": false, "42": false, "51": true, "52": false, "6": false, "7": false }, "geometry": { "type": "Point", "coordinates": [ 57.499297722698259, -20.163139609939019 ] } },
{ "type": "Feature", "properties": { "osm_id": "4875889468", "code": 2512, "fclass": "clothes", "name": "Tout pour la mode Homme et Dame", "1": true, "2": false, "3": false, "41": false, "42": false, "51": false, "52": false, "6": false, "7": false }, "geometry": { "type": "Point", "coordinates": [ 57.499387022696645, -20.163208109938299 ] } },
{ "type": "Feature", "properties": { "osm_id": "4875889469", "code": 2602, "fclass": "atm", "name": "SBM", "1": true, "2": false, "3": false, "41": false, "42": false, "51": false, "52": false, "6": false, "7": false }, "geometry": { "type": "Point", "coordinates": [ 57.499080422701518, -20.163074709940545 ] } },
{ "type": "Feature", "properties": { "osm_id": "4875889470", "code": 2512, "fclass": "clothes", "name": "Island Kidz", "1": true, "2": false, "3": false, "41": false, "42": false, "51": false, "52": false, "6": false, "7": false }, "geometry": { "type": "Point", "coordinates": [ 57.499137422700791, -20.163070509940201 ] } },
{ "type": "Feature", "properties": { "osm_id": "4875889471", "code": 2005, "fclass": "post_office", "name": "Mauritius Post", "1": true, "2": false, "3": false, "41": false, "42": false, "51": false, "52": true, "6": false, "7": false }, "geometry": { "type": "Point", "coordinates": [ 57.499019422702865, -20.162988609941166 ] } },
{ "type": "Feature", "properties": { "osm_id": "4875889472", "code": 2521, "fclass": "gift_shop", "name": "La foire Victoria", "1": true, "2": false, "3": false, "41": false, "42": false, "51": false, "52": false, "6": false, "7": false }, "geometry": { "type": "Point", "coordinates": [ 57.499273222697703, -20.163274709938761 ] } },
{ "type": "Feature", "properties": { "osm_id": "4875889473", "code": 2529, "fclass": "beauty_shop", "name": "Extra Espace Beauté", "1": true, "2": false, "3": false, "41": false, "42": false, "51": false, "52": false, "6": false, "7": false }, "geometry": { "type": "Point", "coordinates": [ 57.499120522700068, -20.163215209939867 ] } },
{ "type": "Feature", "properties": { "osm_id": "4875889834", "code": 2301, "fclass": "restaurant", "name": "La Bonne Marmite", "1": true, "2": false, "3": false, "41": true, "42": false, "51": false, "52": false, "6": false, "7": false }, "geometry": { "type": "Point", "coordinates": [ 57.503332022652614, -20.162005609918591 ] } },
{ "type": "Feature", "properties": { "osm_id": "4875889836", "code": 2512, "fclass": "clothes", "name": "Newgen", "1": true, "2": false, "3": false, "41": false, "42": false, "51": false, "52": false, "6": false, "7": false }, "geometry": { "type": "Point", "coordinates": [ 57.503436222649675, -20.162250709917195 ] } },
{ "type": "Feature", "properties": { "osm_id": "4875889840", "code": 2303, "fclass": "cafe", "name": "Artisan Coffee", "1": true, "2": false, "3": false, "41": true, "42": false, "51": false, "52": false, "6": false, "7": false }, "geometry": { "type": "Point", "coordinates": [ 57.50353982264928, -20.162100809917042 ] } },
{ "type": "Feature", "properties": { "osm_id": "4875889841", "code": 2512, "fclass": "clothes", "name": "Body and Soul", "1": true, "2": false, "3": false, "41": false, "42": false, "51": false, "52": false, "6": false, "7": false }, "geometry": { "type": "Point", "coordinates": [ 57.503858922643452, -20.162359409914366 ] } },
{ "type": "Feature", "properties": { "osm_id": "4875889843", "code": 2523, "fclass": "stationery", "name": "Imprimerie & Papeterie ltee (IPC)", "1": true, "2": false, "3": false, "41": false, "42": false, "51": false, "52": true, "6": false, "7": false }, "geometry": { "type": "Point", "coordinates": [ 57.503562122647239, -20.162375709916084 ] } },
{ "type": "Feature", "properties": { "osm_id": "4875889845", "code": 2519, "fclass": "optician", "name": "Mohamed Home (Optician)", "1": true, "2": false, "3": false, "41": false, "42": false, "51": false, "52": false, "6": false, "7": false }, "geometry": { "type": "Point", "coordinates": [ 57.503784822643773, -20.162459109914501 ] } },
{ "type": "Feature", "properties": { "osm_id": "4875889846", "code": 2512, "fclass": "clothes", "name": "Tulsidas fils ltd", "1": true, "2": false, "3": false, "41": false, "42": false, "51": false, "52": false, "6": false, "7": false }, "geometry": { "type": "Point", "coordinates": [ 57.503863822642295, -20.162530109913821 ] } },
{ "type": "Feature", "properties": { "osm_id": "4875889847", "code": 2601, "fclass": "bank", "name": null, "1": true, "2": false, "3": false, "41": false, "42": false, "51": false, "52": true, "6": false, "7": false }, "geometry": { "type": "Point", "coordinates": [ 57.503940222640843, -20.162601409913137 ] } },
{ "type": "Feature", "properties": { "osm_id": "4875889853", "code": 2301, "fclass": "restaurant", "name": "Chez Mota", "1": true, "2": false, "3": false, "41": true, "42": false, "51": false, "52": false, "6": false, "7": false }, "geometry": { "type": "Point", "coordinates": [ 57.504127222640321, -20.162298209912972 ] } },
{ "type": "Feature", "properties": { "osm_id": "4875889922", "code": 2513, "fclass": "florist", "name": "Felurina Fleurist and Snack", "1": true, "2": false, "3": false, "41": false, "42": false, "51": false, "52": false, "6": false, "7": false }, "geometry": { "type": "Point", "coordinates": [ 57.504298422640254, -20.161956609912991 ] } },
{ "type": "Feature", "properties": { "osm_id": "4875903722", "code": 2512, "fclass": "clothes", "name": "AZ Rose Garden", "1": true, "2": false, "3": false, "41": false, "42": false, "51": false, "52": false, "6": false, "7": false }, "geometry": { "type": "Point", "coordinates": [ 57.503586122663862, -20.159716009924129 ] } },
{ "type": "Feature", "properties": { "osm_id": "4875917205", "code": 2521, "fclass": "gift_shop", "name": "Rossenkhan & Co. Ltd", "1": true, "2": false, "3": false, "41": false, "42": false, "51": false, "52": false, "6": false, "7": false }, "geometry": { "type": "Point", "coordinates": [ 57.499256722695378, -20.163674209937639 ] } },
{ "type": "Feature", "properties": { "osm_id": "4876302924", "code": 2082, "fclass": "school", "name": "Diego Garcia Govt School", "1": true, "2": true, "3": true, "41": false, "42": false, "51": false, "52": false, "6": false, "7": false }, "geometry": { "type": "Point", "coordinates": [ 57.518806222441874, -20.163251609822964 ] } },
{ "type": "Feature", "properties": { "osm_id": "4876328626", "code": 2005, "fclass": "post_office", "name": "Valley Pitot Post Office", "1": true, "2": false, "3": false, "41": false, "42": false, "51": false, "52": true, "6": false, "7": false }, "geometry": { "type": "Point", "coordinates": [ 57.517178422453014, -20.164853509827687 ] } },
{ "type": "Feature", "properties": { "osm_id": "4877216254", "code": 2724, "fclass": "memorial", "name": "SSR Memorial", "1": true, "2": false, "3": false, "41": false, "42": false, "51": false, "52": false, "6": false, "7": true }, "geometry": { "type": "Point", "coordinates": [ 57.510363722582163, -20.158597809887368 ] } },
{ "type": "Feature", "properties": { "osm_id": "4877216255", "code": 2601, "fclass": "bank", "name": "Mauritius Commercial Bank", "1": true, "2": false, "3": false, "41": false, "42": false, "51": false, "52": true, "6": false, "7": false }, "geometry": { "type": "Point", "coordinates": [ 57.511903122558998, -20.159063209876848 ] } },
{ "type": "Feature", "properties": { "osm_id": "4877216256", "code": 2252, "fclass": "pitch", "name": null, "1": true, "2": false, "3": false, "41": false, "42": false, "51": false, "52": false, "6": false, "7": true }, "geometry": { "type": "Point", "coordinates": [ 57.512139622552212, -20.159643809873621 ] } },
{ "type": "Feature", "properties": { "osm_id": "4877348451", "code": 2302, "fclass": "fast_food", "name": "Quicken", "1": true, "2": false, "3": false, "41": true, "42": false, "51": false, "52": false, "6": false, "7": false }, "geometry": { "type": "Point", "coordinates": [ 57.513340422532337, -20.160294509864485 ] } },
{ "type": "Feature", "properties": { "osm_id": "4982946935", "code": 2511, "fclass": "convenience", "name": "Super Top Mini Market", "1": true, "2": false, "3": false, "41": false, "42": false, "51": true, "52": false, "6": false, "7": false }, "geometry": { "type": "Point", "coordinates": [ 57.515942622453416, -20.167337309827378 ] } },
{ "type": "Feature", "properties": { "osm_id": "4982962606", "code": 2301, "fclass": "restaurant", "name": "Super Chicken", "1": true, "2": false, "3": false, "41": true, "42": false, "51": false, "52": false, "6": false, "7": false }, "geometry": { "type": "Point", "coordinates": [ 57.517966622439012, -20.16543090982125 ] } },
{ "type": "Feature", "properties": { "osm_id": "4983016126", "code": 2303, "fclass": "cafe", "name": "Patisserie Eclaire", "1": true, "2": false, "3": false, "41": true, "42": false, "51": false, "52": false, "6": false, "7": false }, "geometry": { "type": "Point", "coordinates": [ 57.505800022611524, -20.16337980989973 ] } },
{ "type": "Feature", "properties": { "osm_id": "4983171537", "code": 2301, "fclass": "restaurant", "name": "Paw Food Palace", "1": true, "2": false, "3": false, "41": true, "42": false, "51": false, "52": false, "6": false, "7": false }, "geometry": { "type": "Point", "coordinates": [ 57.504428422637069, -20.162190809911511 ] } },
{ "type": "Feature", "properties": { "osm_id": "4983171544", "code": 2525, "fclass": "mobile_phone_shop", "name": "T Smart Phone", "1": true, "2": false, "3": false, "41": false, "42": false, "51": false, "52": false, "6": false, "7": false }, "geometry": { "type": "Point", "coordinates": [ 57.50470022263179, -20.162459309909107 ] } },
{ "type": "Feature", "properties": { "osm_id": "4983181814", "code": 2519, "fclass": "optician", "name": "Seiko Optical", "1": true, "2": false, "3": false, "41": false, "42": false, "51": false, "52": false, "6": false, "7": false }, "geometry": { "type": "Point", "coordinates": [ 57.505776522620053, -20.162087609903836 ] } },
{ "type": "Feature", "properties": { "osm_id": "4983181815", "code": 2529, "fclass": "beauty_shop", "name": "Body & Soul", "1": true, "2": false, "3": false, "41": false, "42": false, "51": false, "52": false, "6": false, "7": false }, "geometry": { "type": "Point", "coordinates": [ 57.50612322261712, -20.161832309902557 ] } },
{ "type": "Feature", "properties": { "osm_id": "4983181816", "code": 2519, "fclass": "optician", "name": "Eye Care Centre", "1": true, "2": false, "3": false, "41": false, "42": false, "51": false, "52": false, "6": false, "7": false }, "geometry": { "type": "Point", "coordinates": [ 57.50620452261667, -20.161738509902392 ] } },
{ "type": "Feature", "properties": { "osm_id": "4983189389", "code": 2301, "fclass": "restaurant", "name": "Foung Shing", "1": true, "2": false, "3": false, "41": true, "42": false, "51": false, "52": false, "6": false, "7": false }, "geometry": { "type": "Point", "coordinates": [ 57.506789122612609, -20.161170909900655 ] } },
{ "type": "Feature", "properties": { "osm_id": "4983189391", "code": 2567, "fclass": "travel_agent", "name": "Premium Travel", "1": true, "2": false, "3": false, "41": false, "42": false, "51": false, "52": false, "6": false, "7": false }, "geometry": { "type": "Point", "coordinates": [ 57.507280922608551, -20.160796609898892 ] } },
{ "type": "Feature", "properties": { "osm_id": "4983189393", "code": 2543, "fclass": "doityourself", "name": "Toco", "1": true, "2": false, "3": false, "41": false, "42": false, "51": false, "52": true, "6": false, "7": false }, "geometry": { "type": "Point", "coordinates": [ 57.508055322603489, -20.159999809896728 ] } },
{ "type": "Feature", "properties": { "osm_id": "4983220784", "code": 2511, "fclass": "convenience", "name": "Tabagie Super Snack", "1": true, "2": false, "3": false, "41": false, "42": false, "51": true, "52": false, "6": false, "7": false }, "geometry": { "type": "Point", "coordinates": [ 57.508742522598617, -20.159347609894638 ] } },
{ "type": "Feature", "properties": { "osm_id": "4983220793", "code": 2543, "fclass": "doityourself", "name": "Techno - Val", "1": true, "2": false, "3": false, "41": false, "42": false, "51": false, "52": true, "6": false, "7": false }, "geometry": { "type": "Point", "coordinates": [ 57.509741722591393, -20.158427009891525 ] } },
{ "type": "Feature", "properties": { "osm_id": "4983244238", "code": 2511, "fclass": "convenience", "name": "M - Ah Sue", "1": true, "2": false, "3": false, "41": false, "42": false, "51": true, "52": false, "6": false, "7": false }, "geometry": { "type": "Point", "coordinates": [ 57.511121522580886, -20.15723870988705 ] } },
{ "type": "Feature", "properties": { "osm_id": "4983296660", "code": 2516, "fclass": "butcher", "name": "Agrison Farming Co", "1": true, "2": false, "3": false, "41": false, "42": false, "51": true, "52": false, "6": false, "7": false }, "geometry": { "type": "Point", "coordinates": [ 57.51417882255334, -20.155269009874978 ] } },
{ "type": "Feature", "properties": { "osm_id": "4983328684", "code": 2512, "fclass": "clothes", "name": "Nouvelle Vision", "1": true, "2": false, "3": false, "41": false, "42": false, "51": false, "52": false, "6": false, "7": false }, "geometry": { "type": "Point", "coordinates": [ 57.514213522535904, -20.157935009866545 ] } },
{ "type": "Feature", "properties": { "osm_id": "4983328685", "code": 2301, "fclass": "restaurant", "name": "Burger & Grill", "1": true, "2": false, "3": false, "41": true, "42": false, "51": false, "52": false, "6": false, "7": false }, "geometry": { "type": "Point", "coordinates": [ 57.513667322541465, -20.158186809869022 ] } },
{ "type": "Feature", "properties": { "osm_id": "4983328686", "code": 2512, "fclass": "clothes", "name": "Faisam Style", "1": true, "2": false, "3": false, "41": false, "42": false, "51": false, "52": false, "6": false, "7": false }, "geometry": { "type": "Point", "coordinates": [ 57.513461222543725, -20.15825600987008 ] } },
{ "type": "Feature", "properties": { "osm_id": "4983328687", "code": 2512, "fclass": "clothes", "name": "Hajraah Fashion", "1": true, "2": false, "3": false, "41": false, "42": false, "51": false, "52": false, "6": false, "7": false }, "geometry": { "type": "Point", "coordinates": [ 57.513253722545954, -20.158331809871015 ] } },
{ "type": "Feature", "properties": { "osm_id": "4983332310", "code": 2511, "fclass": "convenience", "name": "Tabagie Ideal", "1": true, "2": false, "3": false, "41": false, "42": false, "51": true, "52": false, "6": false, "7": false }, "geometry": { "type": "Point", "coordinates": [ 57.515456122552628, -20.15274860987515 ] } },
{ "type": "Feature", "properties": { "osm_id": "4983332315", "code": 2512, "fclass": "clothes", "name": "Easy Collection", "1": true, "2": false, "3": false, "41": false, "42": false, "51": false, "52": false, "6": false, "7": false }, "geometry": { "type": "Point", "coordinates": [ 57.517997522504857, -20.155023509853073 ] } },
{ "type": "Feature", "properties": { "osm_id": "4983332317", "code": 2543, "fclass": "doityourself", "name": "Quincaillerie Sam", "1": true, "2": false, "3": false, "41": false, "42": false, "51": false, "52": true, "6": false, "7": false }, "geometry": { "type": "Point", "coordinates": [ 57.517910122505491, -20.155102809853343 ] } },
{ "type": "Feature", "properties": { "osm_id": "4983337427", "code": 2525, "fclass": "mobile_phone_shop", "name": "Phone Universe", "1": true, "2": false, "3": false, "41": false, "42": false, "51": false, "52": false, "6": false, "7": false }, "geometry": { "type": "Point", "coordinates": [ 57.517694622507122, -20.155290309854074 ] } },
{ "type": "Feature", "properties": { "osm_id": "4983360791", "code": 2511, "fclass": "convenience", "name": "Khouadin Store", "1": true, "2": false, "3": false, "41": false, "42": false, "51": true, "52": false, "6": false, "7": false }, "geometry": { "type": "Point", "coordinates": [ 57.515968222534198, -20.154592709866431 ] } },
{ "type": "Feature", "properties": { "osm_id": "4983360807", "code": 2542, "fclass": "bicycle_shop", "name": "International Bike Centre", "1": true, "2": false, "3": false, "41": false, "42": false, "51": false, "52": false, "6": false, "7": false }, "geometry": { "type": "Point", "coordinates": [ 57.514874522547203, -20.154800009872297 ] } },
{ "type": "Feature", "properties": { "osm_id": "4983380843", "code": 2517, "fclass": "shoe_shop", "name": "Bata", "1": true, "2": false, "3": false, "41": false, "42": false, "51": false, "52": false, "6": false, "7": false }, "geometry": { "type": "Point", "coordinates": [ 57.503645822652857, -20.161319909918856 ] } },
{ "type": "Feature", "properties": { "osm_id": "4983380849", "code": 2301, "fclass": "restaurant", "name": "Sure Veg", "1": true, "2": false, "3": false, "41": true, "42": false, "51": false, "52": false, "6": false, "7": false }, "geometry": { "type": "Point", "coordinates": [ 57.504680722633125, -20.162290409909751 ] } },
{ "type": "Feature", "properties": { "osm_id": "4983388872", "code": 2512, "fclass": "clothes", "name": "Boumun Trading", "1": true, "2": false, "3": false, "41": false, "42": false, "51": false, "52": false, "6": false, "7": false }, "geometry": { "type": "Point", "coordinates": [ 57.50538442262404, -20.162266609905604 ] } },
{ "type": "Feature", "properties": { "osm_id": "4983388876", "code": 2512, "fclass": "clothes", "name": "Carame'el Boutik", "1": true, "2": false, "3": false, "41": false, "42": false, "51": false, "52": false, "6": false, "7": false }, "geometry": { "type": "Point", "coordinates": [ 57.505592622622466, -20.162087109904942 ] } },
{ "type": "Feature", "properties": { "osm_id": "4983388879", "code": 2517, "fclass": "shoe_shop", "name": "Parmanand", "1": true, "2": false, "3": false, "41": false, "42": false, "51": false, "52": false, "6": false, "7": false }, "geometry": { "type": "Point", "coordinates": [ 57.50579542262097, -20.161904609904276 ] } },
{ "type": "Feature", "properties": { "osm_id": "4983388880", "code": 2512, "fclass": "clothes", "name": "Mag Rouby", "1": true, "2": false, "3": false, "41": false, "42": false, "51": false, "52": false, "6": false, "7": false }, "geometry": { "type": "Point", "coordinates": [ 57.50582922262074, -20.161869909904176 ] } },
{ "type": "Feature", "properties": { "osm_id": "4983388894", "code": 2517, "fclass": "shoe_shop", "name": "Young Bros", "1": true, "2": false, "3": false, "41": false, "42": false, "51": false, "52": false, "6": false, "7": false }, "geometry": { "type": "Point", "coordinates": [ 57.506497422615787, -20.161272909902088 ] } },
{ "type": "Feature", "properties": { "osm_id": "4983388895", "code": 2561, "fclass": "hairdresser", "name": "Hair by Design", "1": true, "2": false, "3": false, "41": false, "42": false, "51": false, "52": false, "6": false, "7": false }, "geometry": { "type": "Point", "coordinates": [ 57.506547922615376, -20.161235809901875 ] } },
{ "type": "Feature", "properties": { "osm_id": "4983388896", "code": 2543, "fclass": "doityourself", "name": "Young Bros", "1": true, "2": false, "3": false, "41": false, "42": false, "51": false, "52": true, "6": false, "7": false }, "geometry": { "type": "Point", "coordinates": [ 57.506569922615242, -20.161208309901848 ] } },
{ "type": "Feature", "properties": { "osm_id": "4983388902", "code": 2511, "fclass": "convenience", "name": "Chez Charlie", "1": true, "2": false, "3": false, "41": false, "42": false, "51": true, "52": false, "6": false, "7": false }, "geometry": { "type": "Point", "coordinates": [ 57.507230922610489, -20.160595509899814 ] } },
{ "type": "Feature", "properties": { "osm_id": "4983392219", "code": 2301, "fclass": "restaurant", "name": "Driftwood", "1": true, "2": false, "3": false, "41": true, "42": false, "51": false, "52": false, "6": false, "7": false }, "geometry": { "type": "Point", "coordinates": [ 57.509294122588393, -20.159819709889955 ] } },
{ "type": "Feature", "properties": { "osm_id": "4983392220", "code": 2101, "fclass": "pharmacy", "name": "Pharmacie Du Centre", "1": true, "2": false, "3": false, "41": false, "42": false, "51": false, "52": true, "6": false, "7": false }, "geometry": { "type": "Point", "coordinates": [ 57.507170722603583, -20.161806509896429 ] } },
{ "type": "Feature", "properties": { "osm_id": "4983395821", "code": 2519, "fclass": "optician", "name": "J. Patel", "1": true, "2": false, "3": false, "41": false, "42": false, "51": false, "52": false, "6": false, "7": false }, "geometry": { "type": "Point", "coordinates": [ 57.504381222633441, -20.162856009909778 ] } },
{ "type": "Feature", "properties": { "osm_id": "4983395822", "code": 2519, "fclass": "optician", "name": "Abdullah Hossen", "1": true, "2": false, "3": false, "41": false, "42": false, "51": false, "52": false, "6": false, "7": false }, "geometry": { "type": "Point", "coordinates": [ 57.50456202263004, -20.163019709908152 ] } },
{ "type": "Feature", "properties": { "osm_id": "4983396147", "code": 2511, "fclass": "convenience", "name": "Tabagie Lo Nam", "1": true, "2": false, "3": false, "41": false, "42": false, "51": true, "52": false, "6": false, "7": false }, "geometry": { "type": "Point", "coordinates": [ 57.507941122605359, -20.159939209897594 ] } },
{ "type": "Feature", "properties": { "osm_id": "4983396148", "code": 2512, "fclass": "clothes", "name": "Uniforms Shop", "1": true, "2": false, "3": false, "41": false, "42": false, "51": false, "52": false, "6": false, "7": false }, "geometry": { "type": "Point", "coordinates": [ 57.507986822605012, -20.159897709897479 ] } },
{ "type": "Feature", "properties": { "osm_id": "4983396153", "code": 2512, "fclass": "clothes", "name": "Chantefrais", "1": true, "2": false, "3": false, "41": false, "42": false, "51": false, "52": false, "6": false, "7": false }, "geometry": { "type": "Point", "coordinates": [ 57.508165222603807, -20.159721409896925 ] } },
{ "type": "Feature", "properties": { "osm_id": "4983404623", "code": 2543, "fclass": "doityourself", "name": "Bright Star Industry", "1": true, "2": false, "3": false, "41": false, "42": false, "51": false, "52": true, "6": false, "7": false }, "geometry": { "type": "Point", "coordinates": [ 57.509352522595307, -20.158611209893326 ] } },
{ "type": "Feature", "properties": { "osm_id": "4983404628", "code": 2511, "fclass": "convenience", "name": "Ah-Siong Store", "1": true, "2": false, "3": false, "41": false, "42": false, "51": true, "52": false, "6": false, "7": false }, "geometry": { "type": "Point", "coordinates": [ 57.509549322593962, -20.15841830989276 ] } },
{ "type": "Feature", "properties": { "osm_id": "4983448639", "code": 2601, "fclass": "bank", "name": "HSBC", "1": true, "2": false, "3": false, "41": false, "42": false, "51": false, "52": true, "6": false, "7": false }, "geometry": { "type": "Point", "coordinates": [ 57.506284222632303, -20.159119409909973 ] } },
{ "type": "Feature", "properties": { "osm_id": "4983448640", "code": 2301, "fclass": "restaurant", "name": "Restaurant Lai Min", "1": true, "2": false, "3": false, "41": true, "42": false, "51": false, "52": false, "6": false, "7": false }, "geometry": { "type": "Point", "coordinates": [ 57.506350422631968, -20.159035509909813 ] } },
{ "type": "Feature", "properties": { "osm_id": "4983448641", "code": 2541, "fclass": "car_dealership", "name": "B.B. Motors", "1": true, "2": false, "3": false, "41": false, "42": false, "51": false, "52": false, "6": false, "7": false }, "geometry": { "type": "Point", "coordinates": [ 57.510165622605641, -20.155316909898652 ] } },
{ "type": "Feature", "properties": { "osm_id": "4983458150", "code": 2511, "fclass": "convenience", "name": "Tabagie AZ", "1": true, "2": false, "3": false, "41": false, "42": false, "51": true, "52": false, "6": false, "7": false }, "geometry": { "type": "Point", "coordinates": [ 57.517379522517686, -20.154279709859036 ] } },
{ "type": "Feature", "properties": { "osm_id": "4983458155", "code": 2101, "fclass": "pharmacy", "name": "Medical Care Pharmacy", "1": true, "2": false, "3": false, "41": false, "42": false, "51": false, "52": true, "6": false, "7": false }, "geometry": { "type": "Point", "coordinates": [ 57.51810562250418, -20.154906809852775 ] } },
{ "type": "Feature", "properties": { "osm_id": "4983458164", "code": 2512, "fclass": "clothes", "name": "Runway Fashions", "1": true, "2": false, "3": false, "41": false, "42": false, "51": false, "52": false, "6": false, "7": false }, "geometry": { "type": "Point", "coordinates": [ 57.518099922502785, -20.1551372098521 ] } },
{ "type": "Feature", "properties": { "osm_id": "4983458170", "code": 2520, "fclass": "jeweller", "name": "Facette D'or", "1": true, "2": false, "3": false, "41": false, "42": false, "51": false, "52": false, "6": false, "7": false }, "geometry": { "type": "Point", "coordinates": [ 57.517781022505083, -20.155432609853101 ] } },
{ "type": "Feature", "properties": { "osm_id": "4983469248", "code": 2511, "fclass": "convenience", "name": "Tabaj Provana", "1": true, "2": false, "3": false, "41": false, "42": false, "51": true, "52": false, "6": false, "7": false }, "geometry": { "type": "Point", "coordinates": [ 57.517373622507698, -20.155861909854195 ] } },
{ "type": "Feature", "properties": { "osm_id": "4983469258", "code": 2519, "fclass": "optician", "name": "Care Optics", "1": true, "2": false, "3": false, "41": false, "42": false, "51": false, "52": false, "6": false, "7": false }, "geometry": { "type": "Point", "coordinates": [ 57.517043022510308, -20.156130609855335 ] } },
{ "type": "Feature", "properties": { "osm_id": "4983469264", "code": 2511, "fclass": "convenience", "name": "Shamsheer Snack", "1": true, "2": false, "3": false, "41": false, "42": false, "51": true, "52": false, "6": false, "7": false }, "geometry": { "type": "Point", "coordinates": [ 57.516743122513944, -20.156179009856931 ] } },
{ "type": "Feature", "properties": { "osm_id": "4983495057", "code": 2511, "fclass": "convenience", "name": "New Life Supermarket", "1": true, "2": false, "3": false, "41": false, "42": false, "51": true, "52": false, "6": false, "7": false }, "geometry": { "type": "Point", "coordinates": [ 57.513320622562738, -20.155559609879173 ] } },
{ "type": "Feature", "properties": { "osm_id": "4983773264", "code": 2302, "fclass": "fast_food", "name": "Candy House", "1": true, "2": false, "3": false, "41": true, "42": false, "51": false, "52": false, "6": false, "7": false }, "geometry": { "type": "Point", "coordinates": [ 57.513297422546593, -20.158143709871336 ] } },
{ "type": "Feature", "properties": { "osm_id": "4983796453", "code": 2519, "fclass": "optician", "name": "Suhotoo optics", "1": true, "2": false, "3": false, "41": false, "42": false, "51": false, "52": false, "6": false, "7": false }, "geometry": { "type": "Point", "coordinates": [ 57.510178222583498, -20.158767609887953 ] } },
{ "type": "Feature", "properties": { "osm_id": "4983809657", "code": 2511, "fclass": "convenience", "name": "Tabagie Ally Ackbar", "1": true, "2": false, "3": false, "41": false, "42": false, "51": true, "52": false, "6": false, "7": false }, "geometry": { "type": "Point", "coordinates": [ 57.514832022560839, -20.152745509878859 ] } },
{ "type": "Feature", "properties": { "osm_id": "4983876531", "code": 2302, "fclass": "fast_food", "name": "Northern Fried Chicken", "1": true, "2": false, "3": false, "41": true, "42": false, "51": false, "52": false, "6": false, "7": false }, "geometry": { "type": "Point", "coordinates": [ 57.513362522544838, -20.158284409870518 ] } },
{ "type": "Feature", "properties": { "osm_id": "4990404458", "code": 2512, "fclass": "clothes", "name": "Iguano AJ Jeans", "1": true, "2": false, "3": false, "41": false, "42": false, "51": false, "52": false, "6": false, "7": false }, "geometry": { "type": "Point", "coordinates": [ 57.504394722648591, -20.160450309917064 ] } },
{ "type": "Feature", "properties": { "osm_id": "4990404461", "code": 2512, "fclass": "clothes", "name": "Belal Collection", "1": true, "2": false, "3": false, "41": false, "42": false, "51": false, "52": false, "6": false, "7": false }, "geometry": { "type": "Point", "coordinates": [ 57.505319922631081, -20.161296009908984 ] } },
{ "type": "Feature", "properties": { "osm_id": "4990404463", "code": 2512, "fclass": "clothes", "name": "Family Collection", "1": true, "2": false, "3": false, "41": false, "42": false, "51": false, "52": false, "6": false, "7": false }, "geometry": { "type": "Point", "coordinates": [ 57.505356522630329, -20.161335609908633 ] } },
{ "type": "Feature", "properties": { "osm_id": "4990404464", "code": 2512, "fclass": "clothes", "name": "Big Brother", "1": true, "2": false, "3": false, "41": false, "42": false, "51": false, "52": false, "6": false, "7": false }, "geometry": { "type": "Point", "coordinates": [ 57.505410922629387, -20.161374209908185 ] } },
{ "type": "Feature", "properties": { "osm_id": "4990404471", "code": 2601, "fclass": "bank", "name": "Banque Patronus", "1": true, "2": false, "3": false, "41": false, "42": false, "51": false, "52": true, "6": false, "7": false }, "geometry": { "type": "Point", "coordinates": [ 57.505538922626933, -20.161494409907046 ] } },
{ "type": "Feature", "properties": { "osm_id": "4990465510", "code": 2512, "fclass": "clothes", "name": "Magasin Nanda", "1": true, "2": false, "3": false, "41": false, "42": false, "51": false, "52": false, "6": false, "7": false }, "geometry": { "type": "Point", "coordinates": [ 57.505735522622871, -20.161730409905164 ] } },
{ "type": "Feature", "properties": { "osm_id": "4990465520", "code": 2511, "fclass": "convenience", "name": "Shabs Trading", "1": true, "2": false, "3": false, "41": false, "42": false, "51": true, "52": false, "6": false, "7": false }, "geometry": { "type": "Point", "coordinates": [ 57.50608212261654, -20.162008809902265 ] } },
{ "type": "Feature", "properties": { "osm_id": "4990468822", "code": 2302, "fclass": "fast_food", "name": "Viva Pizza", "1": true, "2": false, "3": false, "41": true, "42": false, "51": false, "52": false, "6": false, "7": false }, "geometry": { "type": "Point", "coordinates": [ 57.506363322611378, -20.162242509899873 ] } },
{ "type": "Feature", "properties": { "osm_id": "4990468836", "code": 2512, "fclass": "clothes", "name": "Belami Club", "1": true, "2": false, "3": false, "41": false, "42": false, "51": false, "52": false, "6": false, "7": false }, "geometry": { "type": "Point", "coordinates": [ 57.506005422613264, -20.162682209900666 ] } },
{ "type": "Feature", "properties": { "osm_id": "4990468838", "code": 2519, "fclass": "optician", "name": "Domun Ahmed Khan Optician", "1": true, "2": false, "3": false, "41": false, "42": false, "51": false, "52": false, "6": false, "7": false }, "geometry": { "type": "Point", "coordinates": [ 57.505563022616386, -20.163102509901965 ] } },
{ "type": "Feature", "properties": { "osm_id": "4990468852", "code": 2512, "fclass": "clothes", "name": "Wonders", "1": true, "2": false, "3": false, "41": false, "42": false, "51": false, "52": false, "6": false, "7": false }, "geometry": { "type": "Point", "coordinates": [ 57.505311122618338, -20.163313709902852 ] } },
{ "type": "Feature", "properties": { "osm_id": "4990468853", "code": 2511, "fclass": "convenience", "name": "Kassim", "1": true, "2": false, "3": false, "41": false, "42": false, "51": true, "52": false, "6": false, "7": false }, "geometry": { "type": "Point", "coordinates": [ 57.505254622618693, -20.16337540990293 ] } },
{ "type": "Feature", "properties": { "osm_id": "4990468856", "code": 2529, "fclass": "beauty_shop", "name": "Radha", "1": true, "2": false, "3": false, "41": false, "42": false, "51": false, "52": false, "6": false, "7": false }, "geometry": { "type": "Point", "coordinates": [ 57.505217622619014, -20.1634015099031 ] } },
{ "type": "Feature", "properties": { "osm_id": "4990513924", "code": 2519, "fclass": "optician", "name": "Jawaheer", "1": true, "2": false, "3": false, "41": false, "42": false, "51": false, "52": false, "6": false, "7": false }, "geometry": { "type": "Point", "coordinates": [ 57.504876922621435, -20.16372130990419 ] } },
{ "type": "Feature", "properties": { "osm_id": "4990513929", "code": 2511, "fclass": "convenience", "name": "H. Mart", "1": true, "2": false, "3": false, "41": false, "42": false, "51": true, "52": false, "6": false, "7": false }, "geometry": { "type": "Point", "coordinates": [ 57.504788522618057, -20.164435509902461 ] } },
{ "type": "Feature", "properties": { "osm_id": "4990513930", "code": 2001, "fclass": "police", "name": "Pope Hennessy Police Station", "1": true, "2": false, "3": false, "41": false, "42": false, "51": false, "52": false, "6": false, "7": false }, "geometry": { "type": "Point", "coordinates": [ 57.505047122613007, -20.164695609900111 ] } },
{ "type": "Feature", "properties": { "osm_id": "4990513936", "code": 2512, "fclass": "clothes", "name": "BA Exchange", "1": true, "2": false, "3": false, "41": false, "42": false, "51": false, "52": false, "6": false, "7": false }, "geometry": { "type": "Point", "coordinates": [ 57.505740122599768, -20.165348209894013 ] } },
{ "type": "Feature", "properties": { "osm_id": "4990513942", "code": 2601, "fclass": "bank", "name": "SBM", "1": true, "2": false, "3": false, "41": false, "42": false, "51": false, "52": true, "6": false, "7": false }, "geometry": { "type": "Point", "coordinates": [ 57.506748922580854, -20.1662412098853 ] } },
{ "type": "Feature", "properties": { "osm_id": "4990513945", "code": 2512, "fclass": "clothes", "name": "Broadway", "1": true, "2": false, "3": false, "41": false, "42": false, "51": false, "52": false, "6": false, "7": false }, "geometry": { "type": "Point", "coordinates": [ 57.507197722572286, -20.166665809881351 ] } },
{ "type": "Feature", "properties": { "osm_id": "4990550991", "code": 2543, "fclass": "doityourself", "name": "Hardware Pro", "1": true, "2": false, "3": false, "41": false, "42": false, "51": false, "52": true, "6": false, "7": false }, "geometry": { "type": "Point", "coordinates": [ 57.503527622608964, -20.168461409897571 ] } },
{ "type": "Feature", "properties": { "osm_id": "4990553065", "code": 2512, "fclass": "clothes", "name": "As Salaam Boutique", "1": true, "2": false, "3": false, "41": false, "42": false, "51": false, "52": false, "6": false, "7": false }, "geometry": { "type": "Point", "coordinates": [ 57.517337022449894, -20.165016009826285 ] } },
{ "type": "Feature", "properties": { "osm_id": "4990554542", "code": 2511, "fclass": "convenience", "name": "Tab J Sana", "1": true, "2": false, "3": false, "41": false, "42": false, "51": true, "52": false, "6": false, "7": false }, "geometry": { "type": "Point", "coordinates": [ 57.519520222443816, -20.161475109824188 ] } },
{ "type": "Feature", "properties": { "osm_id": "4990554560", "code": 2511, "fclass": "convenience", "name": "Vistoria Mini Market", "1": true, "2": false, "3": false, "41": false, "42": false, "51": true, "52": false, "6": false, "7": false }, "geometry": { "type": "Point", "coordinates": [ 57.518770522433186, -20.164691909818742 ] } },
{ "type": "Feature", "properties": { "osm_id": "4990554570", "code": 2511, "fclass": "convenience", "name": "Sha's Snack", "1": true, "2": false, "3": false, "41": false, "42": false, "51": true, "52": false, "6": false, "7": false }, "geometry": { "type": "Point", "coordinates": [ 57.518437822435601, -20.164996209819801 ] } },
{ "type": "Feature", "properties": { "osm_id": "4990567255", "code": 2511, "fclass": "convenience", "name": "Tabagie Polar", "1": true, "2": false, "3": false, "41": false, "42": false, "51": true, "52": false, "6": false, "7": false }, "geometry": { "type": "Point", "coordinates": [ 57.51756052244157, -20.165863609822342 ] } },
{ "type": "Feature", "properties": { "osm_id": "4990567268", "code": 2543, "fclass": "doityourself", "name": "New Island Hardware", "1": true, "2": false, "3": false, "41": false, "42": false, "51": false, "52": true, "6": false, "7": false }, "geometry": { "type": "Point", "coordinates": [ 57.517460822444242, -20.165648709823564 ] } },
{ "type": "Feature", "properties": { "osm_id": "4990592352", "code": 2511, "fclass": "convenience", "name": null, "1": true, "2": false, "3": false, "41": false, "42": false, "51": true, "52": false, "6": false, "7": false }, "geometry": { "type": "Point", "coordinates": [ 57.500302122653572, -20.168091509917847 ] } },
{ "type": "Feature", "properties": { "osm_id": "4990592367", "code": 2512, "fclass": "clothes", "name": "Pride Collection", "1": true, "2": false, "3": false, "41": false, "42": false, "51": false, "52": false, "6": false, "7": false }, "geometry": { "type": "Point", "coordinates": [ 57.500009322659047, -20.167835509920394 ] } },
{ "type": "Feature", "properties": { "osm_id": "4990595683", "code": 2302, "fclass": "fast_food", "name": "Pom Tree", "1": true, "2": false, "3": false, "41": true, "42": false, "51": false, "52": false, "6": false, "7": false }, "geometry": { "type": "Point", "coordinates": [ 57.518771822452308, -20.161685109827989 ] } },
{ "type": "Feature", "properties": { "osm_id": "4990595688", "code": 2511, "fclass": "convenience", "name": "Al-Ameen Cold Storage", "1": true, "2": false, "3": false, "41": false, "42": false, "51": true, "52": false, "6": false, "7": false }, "geometry": { "type": "Point", "coordinates": [ 57.519646222428435, -20.163630109816793 ] } },
{ "type": "Feature", "properties": { "osm_id": "4990595694", "code": 2511, "fclass": "convenience", "name": "Hamza Cold Storage", "1": true, "2": false, "3": false, "41": false, "42": false, "51": true, "52": false, "6": false, "7": false }, "geometry": { "type": "Point", "coordinates": [ 57.517810422472152, -20.160546709837181 ] } },
{ "type": "Feature", "properties": { "osm_id": "4990602413", "code": 2511, "fclass": "convenience", "name": "Tabagie Easterns", "1": true, "2": false, "3": false, "41": false, "42": false, "51": true, "52": false, "6": false, "7": false }, "geometry": { "type": "Point", "coordinates": [ 57.517690722474192, -20.160471809838135 ] } },
{ "type": "Feature", "properties": { "osm_id": "4990603585", "code": 2525, "fclass": "mobile_phone_shop", "name": null, "1": true, "2": false, "3": false, "41": false, "42": false, "51": false, "52": false, "6": false, "7": false }, "geometry": { "type": "Point", "coordinates": [ 57.494310022741367, -20.16663480995787 ] } },